"","business_id","Score","name","longitude","latitude"
"1",19,94,"Nrgize Lifestyle Cafe",-122.421547,37.786848
"2",24,96,"OMNI S.F. Hotel - 2nd Floor Pantry",-122.403135,37.792888
"3",31,100,"Norman's Ice Cream and Freezes",-122.419004,37.807155
"4",45,94,"CHARLIE'S DELI CAFE",-122.413641,37.747114
"5",48,92,"ART'S CAFE",-122.465749,37.764013
"6",54,100,"RHODA GOLDMAN PLAZA",-122.437734,37.784626
"7",56,98,"CAFE X + O",-122.426476,37.742325
"8",61,92,"Chowders",-122.410189,37.80824
"9",66,100,"STARBUCKS",-122.477461,37.763578
"10",67,90,"Revolution Cafe",-122.419542,37.755419
"11",71,100,"KAPPA RESTAURANT",-122.430074,37.785567
"12",76,100,"OMNI S.F. Hotel - 3rd Floor Pantry",-122.403135,37.792888
"13",77,96,"OMNI S.F. Hotel - Employee Cafeteria",-122.403135,37.792888
"14",80,100,"LAW SCHOOL CAFE",-122.452797,37.774941
"15",88,89,"J.B.'S PLACE",-122.398084,37.765003
"16",95,85,"Vega",-122.417447,37.739207
"17",98,94,"XOX Truffles",-122.412104,37.801665
"18",101,96,"Cable Car Corner",-122.409705,37.794615
"19",102,100,"Akiko's Sushi Bar",-122.410045,37.788484
"20",108,94,"Rue Lepic",-122.410854,37.790868
"21",111,92,"Petite Deli",-122.412104,37.801665
"22",125,100,"Centerfolds",-122.403637,37.798233
"23",130,100,"Caffe Macaroni",-122.404308,37.796208
"24",132,86,"Silver Star Cafe and Deli",-122.401125,37.797668
"25",134,98,"Mint",-122.418974,37.780247
"26",140,96,"Cafe Madeleine",-122.400323,37.793268
"27",141,100,"AFC SUSHI @ MOLLIE STONE'S 2",-122.434697,37.788773
"28",164,100,"San Francisco Soup Co",-122.402861,37.789064
"29",178,90,"C & Y Cafe",-122.401395,37.793128
"30",179,94,"SECRET GARDEN TEA HOUSE",-122.465809,37.765933
"31",180,91,"NENAS RESTAURANT",-122.422484,37.74146
"32",184,96,"RADIO HAVANA",-122.420916,37.755124
"33",187,100,"TAZA WRAPS & JUICE",-122.483612,37.723054
"34",190,92,"COURTYARD BY MARRIOTT-STAFF KITCHEN",-122.396693,37.785614
"35",192,92,"ARLEQUIN",-122.422345,37.777014
"36",198,94,"SUBWAY",-122.388098,37.741829
"37",216,100,"SORABOL",-122.393992,37.792577
"38",217,94,"PROGRESSIVE GROUNDS",-122.417653,37.739143
"39",221,91,"NOODLE EXPRESS",-122.421822,37.787076
"40",239,90,"Just Wonton",-122.480409,37.739063
"41",251,96,"BEANERY INC.",-122.464391,37.764148
"42",253,98,"Ann's Donut Coffee Shop",-122.433906,37.725949
"43",258,98,"VIKINGS GIANT SUBMARINE",-122.456539,37.72404
"44",260,92,"Monterey Pizza",-122.448711,37.731523
"45",264,98,"Melt!",-122.411412,37.801203
"46",272,72,"ON THE BRIDGE",-122.431472,37.785227
"47",279,100,"Inga Donuts",-122.417227,37.790347
"48",281,96,"PARMA RESTAURANT",-122.437649,37.799807
"49",299,96,"YUKOL PLACE THAI CUISINE",-122.440624,37.799287
"50",300,96,"SUBWAY",-122.423234,37.794134
"51",318,94,"FIRST CUP",-122.424854,37.802454
"52",320,84,"NAPOLI PIZZA RESTAURANT",-122.419894,37.786545
"53",323,100,"WAYO",-122.42213,37.788609
"54",326,88,"TEN ICHI RESTAURANT",-122.434144,37.790333
"55",328,94,"Miyako",-122.432584,37.783017
"56",335,76,"Polkers",-122.421967,37.797296
"57",337,94,"GORDO TAQUERIA #2",-122.48591,37.758941
"58",379,100,"GIANT SCOOP",-122.403582,37.727468
"59",383,100,"King Ling",-122.414536,37.786543
"60",384,88,"RINCONSITO SALVADORENO",-122.424528,37.73571
"61",386,83,"ADELITA'S CAKES",-122.424432,37.736304
"62",389,100,"CAFE ELENA",-122.394932,37.794347
"63",393,90,"SUPER STAR RESTAURANT",-122.438575,37.719692
"64",394,100,"SF MARRIOTT HOTEL PANTRY 5/F",-122.404752,37.784964
"65",395,100,"SF MARRIOTT HOTEL PANTRY 4/F",-122.404752,37.784964
"66",400,94,"COW HOLLOW CATERING",-122.447857,37.801401
"67",403,81,"HAAGEN-DAZS #561",-122.407563,37.784317
"68",409,98,"EL FARO",-122.393894,37.788613
"69",413,87,"HOUSE OF HUNAN",-122.393914,37.757923
"70",415,87,"Cafe Madeleine",-122.405473,37.786698
"71",422,86,"Michelangelo Caffe",-122.410006,37.800166
"72",428,100,"Caffe Ambrosia",-122.402597,37.790109
"73",430,86,"Rose Pistola",-122.409544,37.799915
"74",435,96,"Vieni-Vieni",-122.408885,37.798914
"75",438,89,"Hawaii West",-122.409337,37.798494
"76",444,88,"Vesuvio Cafe",-122.406147,37.797468
"77",462,98,"Garden of Eden",-122.406018,37.797933
"78",470,94,"Franchino",-122.407507,37.798427
"79",485,90,"Silverhat Bar, Inc",-122.410223,37.799388
"80",486,90,"Tommaso",-122.405322,37.797398
"81",502,100,"COURTYARD BY MARRIOTT-COFFEE SHOP",-122.396693,37.785614
"82",503,89,"Kiji Restaurant",-122.423126,37.754923
"83",505,96,"Quickly",-122.44277,37.714458
"84",510,90,"Donut Time",-122.48954,37.753633
"85",519,100,"SHERATON PALACE - EMP.  CAFETERIA",-122.401543,37.788286
"86",520,90,"Daily Health",-122.48591,37.758941
"87",538,96,"Marnee Thai Restaurant",-122.481809,37.763343
"88",539,92,"EL SALVADOR RESTAURANT",-122.41932,37.760579
"89",542,92,"Hamburger Haven",-122.467852,37.782799
"90",544,87,"THAI TIME RESTAURANT",-122.466615,37.782534
"91",547,98,"LITTLE HENRY'S",-122.497522,37.775728
"92",551,96,"Gordo Taqueria #1",-122.483631,37.782107
"93",552,83,"Loi's Vietnamese Restaurant",-122.481736,37.763428
"94",557,90,"KATIA'S",-122.462874,37.77721
"95",558,96,"CAJUN PACIFIC",-122.506543,37.762304
"96",573,94,"MUFFIN'S MUFFIN",-122.399372,37.787755
"97",580,93,"TACO LOS ALTOS",-122.414971,37.738979
"98",587,90,"NEW TSING TAO RESTAURANT",-122.465389,37.740654
"99",588,90,"BURRITO EXPRESS",-122.48334,37.742673
"100",591,92,"YOU SEE SUSHI",-122.462692,37.762378
"101",610,73,"POMELO",-122.462692,37.762378
"102",615,96,"J & A RESTAURANT",-122.449709,37.709857
"103",619,93,"A-1 BAKERY",-122.460726,37.724824
"104",625,96,"CALIFORNIA TENNIS CLUB",-122.437657,37.786463
"105",627,93,"EDDIES CAFE",-122.438098,37.776898
"106",628,92,"EL BURRITO EXPRESS #2",-122.440057,37.786407
"107",634,77,"KING LEE'S RESTAURANT",-122.432504,37.782632
"108",642,100,"ANDERSEN BAKERY",-122.430317,37.785457
"109",645,100,"TAN-TAN",-122.431918,37.785274
"110",659,92,"Golden Coffee",-122.415218,37.788322
"111",665,86,"BRAZEN HEAD RESTAURANT",-122.432517,37.799218
"112",691,92,"MARINA SUBMARINE",-122.436847,37.796893
"113",696,92,"New York New York Pizza Kitchen",-122.409647,37.784303
"114",727,92,"FOOD INC.",-122.440705,37.788068
"115",729,92,"ASHOKA Indian Cuisine",-122.437024,37.800758
"116",741,83,"MOZZARELLA DI BUFALA PIZZERIA II",-122.466544,37.740052
"117",744,100,"Cafe Bellini",-122.407563,37.784317
"118",758,100,"BAKERY/ICE CREAM/STOREROOM",-122.401543,37.788286
"119",760,94,"Tart To Tart",-122.40071,37.787598
"120",773,91,"MARIPOSA HUNTERS POINT YACHT CLUB",-122.387222,37.77325
"121",774,92,"BAY VIEW BOAT CLUB",-122.387032,37.772667
"122",786,94,"Piperade",-122.401484,37.800674
"123",790,86,"Paul Mart",-122.402341,37.804211
"124",795,96,"Ben & Jerry's",-122.412,37.808494
"125",798,90,"Sushi Rapture",-122.416267,37.793997
"126",799,100,"Courtyard by Marriott at Fisherman's Wharf",-122.41862,37.806964
"127",816,87,"B & J QUARTER POUNDER BURGERS",-122.395841,37.722374
"128",824,92,"BABY'S EATERY AND PALABOK",-122.434879,37.724579
"129",826,100,"ANGELINA'S DELI-CAFE & CATERING",-122.481982,37.784038
"130",827,98,"TAQUERIA EL FAROLITO NO. 2",-122.437385,37.721251
"131",835,86,"Kam Po Kitchen",-122.410513,37.797223
"132",856,96,"DELFINA RESTAURANT",-122.424318,37.761514
"133",873,100,"The Coffee Roaster, Inc.",-122.398319,37.79739
"134",876,92,"PATPONG THAI CUISINE, INC.",-122.48522,37.781973
"135",880,73,"Delicious Dim Sum",-122.407574,37.795974
"136",884,87,"House of Nanking",-122.405224,37.796463
"137",886,100,"Le Petit Cafe",-122.39914,37.795227
"138",891,82,"Lucky Creation Vegetarian Restaurant LLC",-122.407433,37.795078
"139",892,100,"Happy Donuts",-122.399834,37.791348
"140",902,96,"MARCELLO'S PIZZA",-122.435145,37.762057
"141",905,94,"Working Girls' Cafe'",-122.404033,37.790477
"142",911,92,"Cafe Dolci",-122.404148,37.787153
"143",917,96,"Town & Country Club",-122.406607,37.787927
"144",920,100,"Ritz-Carlton SF - Club Lounge",-122.407377,37.791757
"145",921,100,"Ritz-Carlton SF - Pantry Prep Room and Lobby Bar",-122.407377,37.791757
"146",929,92,"Cafe Ethiopia",-122.421359,37.758832
"147",943,85,"EL CASTILLITO TAQUERIA INC.",-122.429095,37.768776
"148",949,96,"BUFFALO BURGERS RESTAURANT",-122.476354,37.780372
"149",950,92,"IRVING PIZZA",-122.47764,37.763513
"150",951,92,"KENTUCKY FRIED CHICKEN #50",-122.478362,37.763528
"151",961,90,"JAVA BEACH CAFE",-122.509106,37.760416
"152",968,82,"GOLDEN ISLAND CAFE",-122.477822,37.754188
"153",977,94,"Bay Pastry, The",-122.477211,37.742998
"154",983,90,"HONG'S SZECHUAN RESTAURANT",-122.499002,37.742048
"155",984,91,"VANIDA THAI KITCHEN",-122.498738,37.742086
"156",993,96,"CHICK-N-DELI",-122.443681,37.713702
"157",999,92,"SERRANO'S PIZZA II",-122.420534,37.756997
"158",1003,98,"RINCON PERUANO RESTAURANT",-122.417402,37.749128
"159",1008,98,"VALENCIA PIZZA & PASTA",-122.421356,37.759944
"160",1018,100,"PETES BARBEQUE",-122.418975,37.758684
"161",1026,88,"PHUKET THAI RESTAURANT",-122.436976,37.771117
"162",1031,93,"IL BORGO",-122.426264,37.775538
"163",1043,96,"CENTRAL COFFEE TEA & SPICE",-122.444214,37.774198
"164",1047,80,"PORK STORE CAFE",-122.446247,37.770063
"165",1048,85,"CREPE EXPRESS",-122.446644,37.770068
"166",1060,96,"BEAN THERE COFFEE & TEA",-122.431953,37.771123
"167",1075,94,"SANDWICH PLACE, THE",-122.419566,37.764384
"168",1081,86,"ARINELL PIZZA",-122.421803,37.764744
"169",1085,89,"STARBUCKS COFFEE #9219",-122.397852,37.792037
"170",1102,92,"HOANG DAT COFFEE SHOP",-122.418644,37.786068
"171",1111,94,"SUBWAY 16604",-122.419357,37.783713
"172",1116,94,"STARBUCKS COFFEE #509",-122.430336,37.797713
"173",1122,98,"STARBUCKS COFFEE #531",-122.438494,37.800547
"174",1124,90,"SQUAT & GOBBLE CAFE #3",-122.433392,37.764248
"175",1125,94,"Peet's Coffee & Tea, Inc",-122.399565,37.791554
"176",1135,90,"Geary Drive In",-122.444744,37.782778
"177",1147,98,"UA Twin Stonestown",-122.478441,37.730105
"178",1154,93,"SUNFLOWER RESTAURANT",-122.421905,37.764678
"179",1156,93,"Boudin Petit Cafe",-122.407313,37.786548
"180",1157,94,"Sutter Cafe",-122.405894,37.789625
"181",1159,87,"Zona Rosa",-122.451667,37.769363
"182",1186,88,"TULLY'S  COFFEE",-122.434535,37.792071
"183",1188,100,"OKINA SUSHI",-122.458445,37.775723
"184",1190,86,"MUGUBOKA",-122.462975,37.777206
"185",1193,98,"PEET'S COFFEES & TEAS",-122.450476,37.786754
"186",1194,98,"SWEET THINGS",-122.452807,37.786453
"187",1199,98,"PANCHO'S",-122.456176,37.781507
"188",1203,98,"TAWAN'S THAI FOOD",-122.46659,37.780834
"189",1231,94,"Yamo Restaurant",-122.419599,37.761882
"190",1232,96,"Sunflower Cafe",-122.409371,37.786316
"191",1241,88,"Banwich",-122.477898,37.742895
"192",1243,91,"JAVA SUPREME",-122.423553,37.759934
"193",1259,92,"KD'S GROG & GROCERY",-122.435384,37.762602
"194",1261,91,"REVERIE COFFEE CAFE",-122.449997,37.766097
"195",1262,88,"NORTH BEACH PIZZA",-122.453075,37.767286
"196",1263,96,"LAVA JAVA",-122.452974,37.766812
"197",1266,96,"Jamba Juice",-122.466246,37.763989
"198",1269,100,"STARBUCKS",-122.392051,37.790944
"199",1273,96,"JAY'S CHEESESTEAK #2",-122.437775,37.774734
"200",1280,100,"AMASIA HIDE'S SUSHI BAR",-122.433306,37.766774
"201",1282,92,"MAXFIELDS",-122.426345,37.763168
"202",1287,82,"Chilango",-122.428819,37.76695
"203",1296,100,"TAQUERIA EL BUEN SABOR",-122.421492,37.761743
"204",1300,98,"WE BE SUSHI",-122.420986,37.755824
"205",1318,92,"GORDO TAQUERIA #6",-122.477804,37.780517
"206",1332,81,"CHLOE'S",-122.427116,37.748594
"207",1337,80,"SAN MIGUEL RESTAURANT #2",-122.420395,37.744726
"208",1339,96,"HIGHER GROUNDS",-122.43368,37.734483
"209",1341,90,"SPIKE'S COFFEES & TEAS",-122.43503,37.759253
"210",1344,90,"Beanery",-122.48591,37.758941
"211",1347,78,"CREPES ON COLE",-122.450184,37.765778
"212",1350,92,"KING OF THAI NOODLE HOUSE",-122.46615,37.782833
"213",1351,96,"EXIT THEATRE",-122.410224,37.784288
"214",1352,79,"LA TORTILLA",-122.434935,37.760954
"215",1354,96,"SUSHI TIME",-122.432322,37.764697
"216",1359,100,"STARBUCKS COFFEE CO.",-122.439957,37.785907
"217",1366,87,"CAFE LA TAZA",-122.41888,37.757436
"218",1368,98,"Starbucks Coffee",-122.400925,37.797754
"219",1389,92,"GASPARE'S PIZZA HOUSE & REST.",-122.478832,37.78047
"220",1391,94,"JAMBA JUICE",-122.409002,37.765708
"221",1395,80,"WHAT A GRIND",-122.416276,37.787239
"222",1398,84,"YUMMA'S MED GRILL",-122.465539,37.764053
"223",1399,100,"La Copa Loca",-122.417982,37.755538
"224",1401,100,"Coffee Cabin",-122.417005,37.788943
"225",1409,100,"STARBUCKS COFFEE #5431",-122.394573,37.792137
"226",1413,100,"STARBUCKS",-122.477825,37.780305
"227",1426,90,"SWEET DELIGHT BAKERY",-122.433817,37.726117
"228",1434,94,"HOLEY BAGEL BAKERY",-122.429122,37.751628
"229",1438,94,"CABLE CAR COFFEE CO",-122.408568,37.783658
"230",1442,90,"Waterfront Bakery",-122.419004,37.807155
"231",1444,92,"Starbucks Coffee",-122.422167,37.790086
"232",1452,88,"CAFE V",-122.414372,37.771538
"233",1466,100,"Whole Foods Steep Brew",-122.423437,37.790193
"234",1469,100,"Holiday Inn Express-Main Kitchen",-122.416244,37.806288
"235",1482,96,"A2 CAFE",-122.399039,37.767224
"236",1487,92,"PEET'S COFFEE & TEA",-122.399522,37.787834
"237",1490,94,"ZEKE'S DIAMOND BAR",-122.394169,37.779957
"238",1491,90,"LIVERPOOL LIL'S",-122.447236,37.798147
"239",1496,89,"FOUR SEASONS HOTEL- EMPLOYEE  CAFETERIA",-122.404852,37.786476
"240",1505,96,"Starbucks Coffee Company #6765",-122.405544,37.790376
"241",1515,98,"AT&T - Cognac Bar/ KITCHEN Room3232 [145080]",-122.391151,37.778382
"242",1516,91,"AT&T - FIELD CLUB KITCHEN [145082]",-122.391151,37.778382
"243",1517,93,"AT&T -in-seat service KITCHEN/Press Dining [145081]",-122.391151,37.778382
"244",1520,100,"STARBUCKS #5852",-122.395192,37.789314
"245",1529,94,"STARBUCKS",-122.396139,37.778694
"246",1532,94,"Neiman Marcus On The Square",-122.408452,37.791586
"247",1534,96,"Cafe Niebaum Coppola",-122.405167,37.796517
"248",1544,100,"OMNI S.F. Hotel - Food & Beverage Storeroom",-122.403135,37.792888
"249",1549,100,"Cafe Bellini",-122.408174,37.786974
"250",1554,86,"KADOK'S",-122.437475,37.721291
"251",1555,100,"Fino",-122.41176,37.788094
"252",1564,100,"Cornell Hotel - Jeanne D'Arc",-122.409117,37.790103
"253",1566,86,"Asia Chinese Food #2",-122.412804,37.805758
"254",1571,80,"SF Bay Club - Court Cafe",-122.402534,37.803208
"255",1585,94,"KENTUCKY FRIED CHICKEN",-122.436307,37.799793
"256",1594,86,"Young's Restaurant",-122.404653,37.793702
"257",1595,92,"Zazie",-122.449914,37.765343
"258",1598,100,"Cafe Bean",-122.413795,37.788587
"259",1607,96,"LE ZINC",-122.433249,37.751323
"260",1608,90,"CLADDAGH COFFEE",-122.440048,37.715997
"261",1613,98,"BRICK HOUSE CAFE",-122.395099,37.779534
"262",1614,100,"STARBUCKS COFFEE #5646",-122.398872,37.791227
"263",1615,96,"Starbucks Coffee",-122.396524,37.794184
"264",1617,90,"CLEMENT BBQ RESTAURANT",-122.4659,37.782843
"265",1619,100,"BENDERS BAR & GRILL",-122.417123,37.76031
"266",1623,98,"Bistro Burger",-122.403168,37.790844
"267",1626,94,"LUPA TRATTORIA",-122.434529,37.751243
"268",1632,98,"SWEET CHINITO",-122.418241,37.748164
"269",1635,94,"KEZAR PUB",-122.453227,37.767828
"270",1636,96,"AXUM",-122.433583,37.771738
"271",1641,98,"MARTHA & BROS. COFFEE CO",-122.426856,37.745974
"272",1649,100,"COURTYARD BY MARRIOTT-RESTAURANT",-122.396693,37.785614
"273",1652,96,"STARBUCKS",-122.400432,37.785037
"274",1664,100,"PANDA EXPRESS",-122.407563,37.784317
"275",1668,98,"SILVER CREST DONUT SHOP",-122.405766,37.742456
"276",1672,94,"WORKING GIRLS' CAFE III",-122.393809,37.792308
"277",1673,100,"RUBIN'S",-122.393992,37.792577
"278",1674,100," NORDSTROM CAFE BISTRO",-122.407563,37.784317
"279",1685,94,"New Lun Ting Cafe, Inc",-122.406275,37.796098
"280",1692,98,"Plouf",-122.403757,37.791318
"281",1699,100,"TWI LIGHT CAFE",-122.455034,37.775698
"282",1703,94,"Lanna Restaurant",-122.477279,37.754153
"283",1712,94,"SEA BREEZE CAFE",-122.504572,37.760508
"284",1726,100,"KFC/TACO BELL",-122.431008,37.728979
"285",1727,86,"Sun Rise Restaurant",-122.414681,37.752508
"286",1734,86,"SAI JAI THAI",-122.417409,37.785182
"287",1741,84,"Osha Thai Noodle Cafe",-122.414583,37.786598
"288",1742,86,"McAllister Grocery & Deli",-122.414312,37.780916
"289",1753,88,"RED BALLOON",-122.418505,37.752923
"290",1757,73,"Dar Bar Pakistani/Indian Cusine",-122.420455,37.789784
"291",1765,96,"MCDONALD'S",-122.39298,37.728048
"292",1768,92,"Subway Sandwiches",-122.419737,37.787783
"293",1778,94,"PIZZA INFERNO",-122.430283,37.786498
"294",1788,87,"EXECUTIVE CAFE",-122.393371,37.711323
"295",1791,94,"GARDEN HOUSE CAFE",-122.492544,37.781597
"296",1792,98,"ATLAS CAFE",-122.411418,37.759073
"297",1800,92,"BRAVO PIZZA",-122.440834,37.716583
"298",1810,94,"TAL-Y-TARA TEA & POLO SHOPPE",-122.486779,37.783773
"299",1811,96,"MOONLIGHT CAFE",-122.415293,37.738923
"300",1814,100,"MARRIOTT - 4TH ST BAR & DELI",-122.404752,37.784964
"301",1823,90,"DAVE'S",-122.402994,37.78713
"302",1829,90,"Nob Hill Cafe",-122.412746,37.793238
"303",1831,100,"B44",-122.403748,37.791278
"304",1844,90,"Basque Hotel",-122.406324,37.798244
"305",1852,88,"Pat's Cafe",-122.414927,37.803947
"306",1854,86,"Cafe Venue",-122.402262,37.791148
"307",1865,96,"Latte Express #3",-122.416434,37.807244
"308",1866,90,"Starbucks Coffee Company",-122.401194,37.793693
"309",1882,100,"Sorabol-Stonestown Galleria",-122.475639,37.728497
"310",1884,94,"HOT DOG ON A STICK",-122.475639,37.728497
"311",1898,100,"Bill's Place",-122.484159,37.782023
"312",1906,92,"Alex Bakery",-122.46395,37.782944
"313",1916,98,"RESTAURANT MINAMI",-122.479553,37.782294
"314",1922,92,"Allstar Donuts",-122.468969,37.782694
"315",1926,92,"LINCOLN PARK BAR AND GRILL",-122.496324,37.782971
"316",1927,96,"STARBUCKS COFFEE",-122.446227,37.775793
"317",1931,86,"YUMMY YUMMY VIETNAMESE RESTAURANT",-122.468809,37.763913
"318",1932,100,"Five Happiness",-122.463931,37.781138
"319",1936,94,"JITRA THAI CUISINE",-122.472953,37.731515
"320",1939,96,"STARBUCKS COFFEE CO. #603",-122.400998,37.787838
"321",1949,77,"PLUTO'S",-122.46471,37.764083
"322",1950,80,"BULLSHEAD RESTAURANT",-122.465507,37.740785
"323",1954,91,"T C PASTRY",-122.481892,37.763388
"324",1959,77,"EBISU RESTAURANT",-122.48591,37.758941
"325",1960,77,"PARADISE PIZZA",-122.470437,37.73671
"326",1963,90,"Spiazzo",-122.466108,37.740456
"327",1970,90,"MICADO  RESTAURANT",-122.480646,37.763468
"328",1972,96,"KENTUCKY FRIED CHICKEN",-122.464072,37.781128
"329",1973,92,"MY FAVORITE CAFE",-122.481942,37.782169
"330",1978,79,"GOLDEN CHARIOT BAKERY & REST",-122.494382,37.775878
"331",1983,98,"Four Star Theatre - Snack Bar",-122.482911,37.782128
"332",1989,98,"PRESIDIO GOLF CLUB",-122.460845,37.788807
"333",1991,92,"SRI THAI CUISINE",-122.507779,37.764073
"334",1994,96,"EL POLLO SUPREMO",-122.441846,37.715469
"335",2002,100,"PANDA EXPRESS",-122.475639,37.728497
"336",2007,96,"Bocadillos",-122.403277,37.795893
"337",2012,91,"CHEESE STEAK SHOP, THE",-122.439887,37.785537
"338",2017,94,"THE GROVE FILLMORE",-122.433637,37.788147
"339",2020,92,"MONROE RESIDENCE CLUB",-122.423703,37.791178
"340",2032,90,"QUEEN ANNE HOTEL",-122.426464,37.786988
"341",2035,91,"ISUMIYA",-122.431472,37.785227
"342",2039,96,"VIA VENETO",-122.434097,37.790437
"343",2043,92,"Ah Lin Restaurant",-122.424184,37.788228
"344",2047,96,"Chestnut Diner",-122.425093,37.802247
"345",2050,87,"Hyde Street Seafood House & Raw Bar, Inc",-122.418184,37.794753
"346",2054,92,"Zarzuela",-122.419047,37.799368
"347",2055,89,"Sun Kwong Restaurant",-122.418334,37.794558
"348",2057,90,"Amarena",-122.420353,37.797713
"349",2060,88,"CAFE LOMBARD",-122.425154,37.801268
"350",2061,96,"ATAMI SUSHI BAR & GRILL",-122.428894,37.800788
"351",2063,86,"ZUSHI-PUZZLE",-122.433053,37.800248
"352",2070,92,"Street Restaurant",-122.421911,37.796327
"353",2076,87,"Lemongrass Thai Noodle",-122.422246,37.798497
"354",2077,100,"Peet's Coffee & Tea",-122.421909,37.796316
"355",2085,84,"KENTUCKY FRIED CHICKEN #249",-122.418988,37.783053
"356",2094,87,"CARL'S JUNIOR",-122.408568,37.783658
"357",2104,80,"Olympic Flame Cafe",-122.412467,37.786803
"358",2107,92,"Kim Thanh Restaurant",-122.413274,37.786683
"359",2110,86,"A La Turca",-122.417617,37.786143
"360",2117,98,"Sakana",-122.411772,37.787798
"361",2124,96,"RUTH'S CHRIS STEAK HOUSE",-122.423034,37.790298
"362",2132,96,"B & M MEI SING RESTAURANT",-122.400466,37.788453
"363",2135,92,"HOWARD STREET COFFEE ROASTERY CAFE",-122.393159,37.790863
"364",2138,92,"BOUDIN BAKERY",-122.401701,37.788924
"365",2144,94,"SHERA.-PAL.HOTEL MAXFIELD'S GRILL",-122.401543,37.788286
"366",2145,87,"FRINGALE",-122.397009,37.778657
"367",2155,94,"DOMINO'S PIZZA",-122.405544,37.742738
"368",2172,92,"Mamas on Washington Square",-122.409434,37.801554
"369",2173,76,"YERBA BUENA MARKET",-122.406761,37.774722
"370",2193,90,"New City Bakery",-122.40476,37.730463
"371",2201,74,"Wali Bakery and Cafe",-122.408603,37.797285
"372",2206,88,"LES CROISSANT CAFE",-122.433775,37.784488
"373",2218,100,"Starbucks Coffee Co",-122.398284,37.79703
"374",2219,96,"Chung King Restaurant",-122.40529,37.796259
"375",2228,96,"Tokyo Express",-122.403984,37.793698
"376",2243,94,"Cafe Claude",-122.404302,37.789857
"377",2245,98,"Starbucks Coffee Co",-122.403896,37.790498
"378",2249,90,"Ramzi's Cafe",-122.401999,37.789552
"379",2252,92,"Niji Japanese Grille",-122.402861,37.789064
"380",2265,94,"H Cafe",-122.43074,37.762705
"381",2266,88,"ALI BABA'S CAVE RESTAURANT",-122.421334,37.760164
"382",2268,100,"Tin Fish at Eagle Cafe",-122.410189,37.80824
"383",2282,98,"PACIFIC CAFE",-122.494562,37.779668
"384",2293,100,"GOLD MIRROR ITALIAN RESTAURANT",-122.474802,37.743118
"385",2299,98,"STARBUCKS COFFEE",-122.422099,37.788476
"386",2305,96,"TIA MARGARITA INC",-122.478425,37.782124
"387",2309,86,"BURGER KING",-122.437135,37.72169
"388",2313,100,"HOT DOG BILLS #2 (Driving Range)",-122.497934,37.708887
"389",2317,94,"BURGER JOINT",-122.421356,37.759933
"390",2318,96,"Garcon",-122.420898,37.755291
"391",2334,81,"LA PAZ RESTAURANT",-122.40665,37.755693
"392",2335,96,"Velvet Cantina",-122.419479,37.753743
"393",2337,89,"EL TACO LOCO INC.",-122.417881,37.752308
"394",2343,98,"GRAND MISSION DONUT & BAKERY",-122.419308,37.761929
"395",2346,92,"LAWRENCE BAKERY CAFE",-122.419275,37.760477
"396",2347,91,"LAS TINAJAS",-122.419185,37.759567
"397",2352,94,"SMILE'S  B.B.Q.",-122.418665,37.755013
"398",2359,90,"LA TRAVIATA",-122.418414,37.751296
"399",2360,92,"LA TAQUERIA",-122.418286,37.750855
"400",2369,90,"CLOONEY'S",-122.420456,37.750374
"401",2375,96,"FLY",-122.438097,37.776707
"402",2384,90,"TWO JACKS SEAFOOD",-122.428997,37.772274
"403",2385,96,"CAFE INTERNATIONAL",-122.430814,37.772097
"404",2406,76,"THEP-PHANON RESTAURANT",-122.430299,37.77124
"405",2409,94,"Mission Hunan Restaurant",-122.419026,37.765142
"406",2426,94,"BOOGALOOS",-122.420652,37.755357
"407",2427,88,"TAQUERIA EL FAROLITO #3",-122.411122,37.752728
"408",2433,98,"PUERTO ALEGRE NO. 2",-122.409162,37.751208
"409",2453,96,"KENNY'S RESTAURANT",-122.417529,37.764851
"410",2455,98,"MUDDY WATERS",-122.421815,37.764484
"411",2463,94,"Blossom Bakery",-122.406944,37.794723
"412",2469,94,"Okoze Sushi",-122.419317,37.799143
"413",2472,96,"Starbucks",-122.432784,37.783505
"414",2475,91,"Fattoush Restaurant",-122.427165,37.749015
"415",2483,96,"CAFE UNION",-122.429504,37.797878
"416",2497,98,"PLUTO'S",-122.441041,37.799796
"417",2507,96,"ALEGRIAS",-122.434714,37.800048
"418",2517,90,"NOAH'S NEW YORK BAGELS #2127",-122.434104,37.790124
"419",2519,94,"PACIFIC PLAZA CAFE",-122.423218,37.786864
"420",2521,96,"LOVEJOY'S TEAROOM & ANTIQUES",-122.427176,37.749154
"421",2523,100,"VENICE PIZZA AND RESTAURANT",-122.442007,37.715315
"422",2538,94,"KATES KITCHEN",-122.429927,37.772163
"423",2542,84,"PETER D'S RESTAURANT",-122.423585,37.795993
"424",2553,92,"Its Tops Coffee Shop",-122.423802,37.771497
"425",2555,92,"EXTREME PIZZA",-122.431883,37.797578
"426",2559,73,"HAI'S RESTAURANT",-122.415804,37.782953
"427",2561,100,"ANANDA FUARA",-122.415969,37.777824
"428",2578,94,"Starbucks Coffee Co",-122.401864,37.802545
"429",2588,100,"The Clift Hotel (Cafeteria)",-122.411136,37.786974
"430",2589,94,"Dojima-Ann",-122.408357,37.786363
"431",2590,100,"SF Hilton - Main Kitchen",-122.410467,37.786094
"432",2593,88,"BELLA TRATTORIA",-122.460842,37.781268
"433",2597,98,"STARBUCKS COFFEE #5396",-122.427549,37.768743
"434",2599,90,"HONG KONG RESTAURANT",-122.403452,37.727159
"435",2610,92,"CAFE LA BOHEME",-122.418928,37.752284
"436",2615,96,"Thai Chef 2",-122.435789,37.760813
"437",2619,78,"KEZAR BAR & RESTAURANT",-122.449887,37.765538
"438",2620,92,"Bambino's Ristorante",-122.449884,37.765174
"439",2627,86,"BURGERMEISTER",-122.429095,37.768776
"440",2632,94,"MARTHA & BROS COFFEE CO",-122.414757,37.738927
"441",2638,96,"SF BAGEL CO. (KATZ BAGELS)",-122.423089,37.764814
"442",2645,91,"Range",-122.421376,37.759417
"443",2646,92,"THE PHOENIX BAR & RESTAURANT",-122.421346,37.759823
"444",2648,88,"BALOMPIE CAFE",-122.418296,37.761836
"445",2652,92,"VILLAGE PIZZERIA",-122.421844,37.787354
"446",2653,90,"Mi Lindo Peru'",-122.420277,37.745069
"447",2659,83,"HUNAN CHEF",-122.416019,37.739048
"448",2664,90,"Alice's Restaurant",-122.428803,37.743602
"449",2667,100,"ARIAKE",-122.47358,37.780523
"450",2676,93,"FIREFLY",-122.438242,37.751068
"451",2690,96,"LOS PANCHOS",-122.420004,37.745516
"452",2692,96,"TYGER'S",-122.4339,37.734579
"453",2697,79,"HOWARD'S CAFE",-122.48591,37.758941
"454",2700,78,"NANJING ROAD",-122.48591,37.758941
"455",2706,96,"MEZES RESTAURANT",-122.442367,37.799988
"456",2709,92,"MELS DRIVE IN",-122.437106,37.799684
"457",2717,90,"GOURMET DIM SUM & CAFE",-122.466359,37.782823
"458",2724,92,"HUNAN EMPIRE",-122.432537,37.797443
"459",2733,98,"New Mangia Tutti Ristorante",-122.403766,37.794563
"460",2739,90,"ROSE'S CAFE",-122.436974,37.796927
"461",2749,90,"TAQUERIA CANCUN",-122.419945,37.745433
"462",2750,85,"HAMANO SUSHI",-122.434065,37.750778
"463",2755,92,"SOCIALE",-122.45299,37.787364
"464",2756,100,"STARBUCKS",-122.453207,37.786404
"465",2758,80,"OSTERIA",-122.446757,37.788183
"466",2764,88,"AL-HAMRA",-122.421349,37.764913
"467",2766,92,"TAQUERIA GUADALAJARA",-122.43755,37.721191
"468",2768,100,"Starbucks Coffee",-122.410585,37.787131
"469",2773,90,"TOGO'S EATERY",-122.409002,37.765708
"470",2777,94,"Starbucks Coffee",-122.397023,37.793632
"471",2778,94,"LEE'S DELI",-122.395922,37.784954
"472",2780,94,"Peet's Coffee",-122.402396,37.791113
"473",2784,96,"Jamba Juice Co",-122.399565,37.791554
"474",2785,90,"G & L RESTAURANT",-122.407152,37.712517
"475",2796,96,"JAMBA JUICE",-122.42719,37.769061
"476",2799,96,"Starbucks Coffee",-122.40542,37.786124
"477",2805,100,"Starbucks Coffee",-122.406877,37.789267
"478",2807,88,"Grandeho's Kamekyo II",-122.420474,37.806153
"479",2809,90,"The Residence",-122.429422,37.767718
"480",2810,96,"Starbucks Coffee",-122.409497,37.785648
"481",2818,100,"STARBUCKS COFFEE #5486",-122.400798,37.788727
"482",2823,94,"Grand Hyatt - Bistro-Employee Cafeteria",-122.406884,37.788944
"483",2829,92,"EAGLE PIZZA",-122.484541,37.742688
"484",2836,90,"Hard Rock Cafe",-122.410189,37.80824
"485",2840,92,"THE OLYMPIC CLUB AT LAKESIDE",-122.497934,37.708887
"486",2841,94,"THE OLYMPIC CLUB AT LAKESIDE, UPPER",-122.497934,37.708887
"487",2842,96,"SEASONS RESTAURANT",-122.404852,37.786476
"488",2843,100,"San Raku Restaurant",-122.412164,37.788798
"489",2849,98,"Kells",-122.404024,37.796378
"490",2854,100,"SANRAKU",-122.40419,37.784548
"491",2858,96,"Kokkari",-122.399864,37.796918
"492",2863,85,"HAYSTACK PIZZA RESTAURANT",-122.429189,37.751573
"493",2866,96,"ELIZA'S RESTAURANT",-122.441657,37.787884
"494",2869,96,"Holiday Inn ExpressHotel - Pantry Kitchen",-122.416244,37.806288
"495",2871,100,"STARBUCK'S COFFEE #6605",-122.410709,37.762963
"496",2880,89,"ALPHA MARKET",-122.449777,37.765007
"497",2884,98,"Starbucks Coffee",-122.402056,37.789705
"498",2885,100,"MOMO'S",-122.389859,37.780047
"499",2893,100,"FOREIGN CINEMA",-122.418884,37.756417
"500",2896,100,"Tlaloc Taqueria",-122.401788,37.794307
"501",2899,90,"Public House/Mijita",-122.391151,37.778382
"502",2907,91,"Market Cafe",-122.452065,37.775117
"503",2910,79,"LUNA PARK",-122.421639,37.761809
"504",2917,87,"OMNI S.F. Hotel - Main Kitchen",-122.403135,37.792888
"505",2919,100,"OMNI S.F. Hotel - Restaurant & Bar",-122.403135,37.792888
"506",2920,100,"Academy of Arts Univ- I House Cafe",-122.414514,37.788498
"507",2922,93,"The White Horse",-122.410833,37.788882
"508",2924,94,"Leatherneck Steakhouse - Marines' Memorial Assn",-122.410467,37.788954
"509",2925,100,"Marines Memorial Club - Banquet",-122.410467,37.788954
"510",2927,94,"The Thai Stick",-122.41333,37.787747
"511",2929,98,"Academy of Arts University",-122.413158,37.790523
"512",2933,85,"Castagnola's Restaurant",-122.417194,37.808098
"513",2943,88,"Tarantino's",-122.416654,37.808138
"514",2952,96,"Rainforest Cafe",-122.414668,37.808323
"515",2957,100,"GOLDEN STATE ADULT DAY HEALTH CARE",-122.510053,37.77439
"516",2967,96,"CHAYA BRASSERIE SAN FRANCISCO",-122.393894,37.788613
"517",2970,96,"Good Earth Cafe",-122.405094,37.795844
"518",2972,98,"PORTICO",-122.406761,37.774722
"519",2973,100,"KOH SAMUI & THE MONKEY",-122.394673,37.779777
"520",2974,98,"LEAPING LEMUR CAFE",-122.502535,37.73017
"521",2978,96,"JAY N BEE CLUB",-122.408257,37.759348
"522",2980,91,"PUERTO ALEGRE",-122.421855,37.764148
"523",2984,98,"PLAYA AZUL SEAFOOD REST. & BAR",-122.421258,37.743598
"524",2987,94,"The Penthouse Club & Steakhouse",-122.404214,37.798217
"525",2995,94,"CAFE ROCCO",-122.408602,37.776127
"526",2996,90,"PALOMINO EURO-BISTRO",-122.390073,37.789394
"527",3016,82,"R & G Executive Lounge, Inc",-122.404765,37.794154
"528",3021,90,"Joe's Crab Shack",-122.416513,37.808078
"529",3031,86,"Victor's Pizza",-122.420595,37.789944
"530",3032,100,"CHIPOTLE MEXICAN GRILL",-122.400269,37.787227
"531",3038,82,"TURK & LARKIN DELI",-122.416873,37.782458
"532",3043,89,"ST. FRANCIS YACHT CLUB",-122.436438,37.800632
"533",3046,96,"Mollie Stone's Grand Central Market",-122.434697,37.788773
"534",3050,96,"Benkyodo Co",-122.429925,37.785994
"535",3053,86,"Harris' Restaurant",-122.423147,37.795058
"536",3054,94,"McCormick & Kuleto's Seafood Restaunt",-122.422854,37.805427
"537",3055,98,"SAFEWAY STORES, INC. #995",-122.431034,37.783253
"538",3056,91,"Cafe Mason",-122.409677,37.786458
"539",3072,94,"HOTEL UTAH SALOON, THE",-122.398104,37.779522
"540",3073,100,"DELANCEY ST. RESTAURANT",-122.388295,37.783884
"541",3080,83,"YAKINIKU HOUSE JUBAN",-122.431472,37.785227
"542",3082,85,"ONE MARKET RESTAURANT",-122.394932,37.794347
"543",3091,96,"MARRIOTT HOTEL - B3 EMPLOYEE CAFE",-122.404752,37.784964
"544",3095,100,"Whitcomb Hotel Bar & Grill",-122.415182,37.778357
"545",3100,100,"Eurest Dining Services",-122.396012,37.793487
"546",3102,98,"TOWN'S END RESTAURANT & BAKERY",-122.388433,37.781865
"547",3114,88,"Franciscan Crab Restaurant",-122.415069,37.808931
"548",3116,96,"Sam's Grill",-122.403553,37.790858
"549",3118,96,"Hyatt Union Square Main Kitchen",-122.406884,37.788944
"550",3120,79,"Cioppino's",-122.419124,37.807854
"551",3129,94,"Francisca Club",-122.409967,37.789014
"552",3130,92,"Pompei's Grotto",-122.418274,37.807957
"553",3160,89,"Tandoori Mahal",-122.405278,37.796557
"554",3161,91,"Pier 2620 Hotel Fisherman's Wharf",-122.416864,37.805418
"555",3165,86,"HAN IL KWAN",-122.478292,37.776599
"556",3183,80,"NEW ERITREA RESTAURANT",-122.467639,37.763964
"557",3185,87,"PIRRO'S PIZZERIA",-122.490421,37.742438
"558",3186,100,"Schuberts Bakery",-122.464948,37.782893
"559",3189,89,"MOSCOW & TBILSI BAKERY STORE",-122.478982,37.780439
"560",3190,96,"NORIEGA TERIYAKI HOUSE",-122.482629,37.753953
"561",3196,88,"United Irish Cultural Center",-122.503086,37.735943
"562",3200,92,"YANK SING",-122.399462,37.789867
"563",3206,90,"PPQ Vietnamese RESTAURANT",-122.484432,37.782068
"564",3207,96,"Farallon Restaurant",-122.409284,37.788188
"565",3209,77,"HAPPY GARDEN RESTAURANT",-122.467979,37.782733
"566",3211,87,"PHO HUYNH HIEP II",-122.477748,37.763503
"567",3216,90,"House of Donuts/Copper Kettle",-122.490301,37.742438
"568",3221,81,"PASQUALES",-122.465512,37.764108
"569",3224,92,"CLEMENT RESTAURANT",-122.465909,37.782843
"570",3228,90,"THANH LONG RESTAURANT",-122.50609,37.760383
"571",3241,72,"SHENG KEE BAKERY",-122.478648,37.76344
"572",3252,88,"LITTLE JOES PIZZA REST.",-122.439655,37.718359
"573",3253,98,"S F GOLF CLUB",-122.471316,37.711329
"574",3260,98,"KENTUCKY FRIED CHICKEN",-122.465031,37.726337
"575",3261,96,"AMBROSIA BAKERY",-122.473392,37.731724
"576",3272,93,"Cigar Bar and Grill",-122.403586,37.797137
"577",3275,91,"GREAT CITY DELI",-122.440114,37.786324
"578",3283,100,"WESTERN PARK APARTMENTS",-122.427487,37.782657
"579",3285,92,"Wing Lum Cafe",-122.419952,37.787438
"580",3289,81,"NEW KOREA HOUSE",-122.428514,37.785778
"581",3296,96,"Granada Hotel Dining Room",-122.417154,37.788168
"582",3298,98,"PASTA POMODORO",-122.453698,37.786344
"583",3299,94,"WOK SHOP CAFE",-122.421966,37.78746
"584",3300,96,"Broadmoor, The",-122.424697,37.787153
"585",3302,91,"RUSSIAN CENTER SOCIAL HALL",-122.440904,37.785138
"586",3304,86,"Round Table Pizza",-122.420954,37.783025
"587",3315,100,"Williams-Sonoma Grande Cuisine Club",-122.425327,37.805779
"588",3316,98,"ROUND TABLE PIZZA",-122.436438,37.800632
"589",3317,90,"Pane e Vino Trattoria",-122.427637,37.798063
"590",3323,96,"Swensen's of SF Inc",-122.419115,37.799187
"591",3324,90,"Buena Vista Cafe",-122.420554,37.806493
"592",3338,92,"La Folie",-122.422156,37.798098
"593",3343,92,"PERRYS",-122.431274,37.797648
"594",3350,98,"House of Prime Rib",-122.422827,37.793338
"595",3365,100,"Togo's /  Baskin Robbins",-122.400567,37.796535
"596",3373,89,"New Delhi Restaurant",-122.408851,37.785465
"597",3374,100,"Daily Grill",-122.408977,37.787218
"598",3375,100,"Sushi Boat Restaurant",-122.409641,37.787143
"599",3392,98,"FAMILY BILLIARDS",-122.449132,37.782103
"600",3397,89,"21ST AMENDMENT BREWERY CAFE",-122.392662,37.782364
"601",3405,92,"GARDEN CT. RESTAURANT & BAR",-122.401543,37.788286
"602",3409,74,"OZUMO",-122.392268,37.792604
"603",3414,98,"TASTE CATERING",-122.387309,37.7456
"604",3420,94,"MCDONALD'S #7413",-122.405736,37.742331
"605",3431,94,"Bimbo's 365 Club",-122.415437,37.803906
"606",3432,89,"Marriott Fisherman's Wharf",-122.417684,37.805554
"607",3437,96,"Fog Harbor Fish House",-122.410189,37.80824
"608",3439,94,"Wipe Out Bar & Grill",-122.410189,37.80824
"609",3440,93,"MV California Hornblower",-122.399862,37.799005
"610",3443,90,"Crab House",-122.410189,37.80824
"611",3444,92,"The Pier Market",-122.410189,37.80824
"612",3449,88,"Sheraton Fisherman's Wharf",-122.413827,37.806948
"613",3456,92,"CANTON DIM SUM HOUSE, INC.",-122.397932,37.784557
"614",3476,79,"GRAND LODGE OF CALIFORNIA",-122.44005,37.717659
"615",3477,91,"CHOW",-122.428866,37.767183
"616",3478,94,"ROUND TABLE PIZZA",-122.403811,37.728027
"617",3481,80,"Trattoria Contadina Restaurant",-122.412456,37.800147
"618",3484,96,"BOULEVARD",-122.392841,37.793497
"619",3490,100,"Morton's Chicago Steakhouse",-122.408525,37.78833
"620",3491,96,"Borodudur Restaurant",-122.413624,37.787677
"621",3492,96,"University Club",-122.409186,37.792308
"622",3496,100,"Bohemian Club",-122.411727,37.788227
"623",3497,87,"Venticello Ristorante",-122.413014,37.794173
"624",3498,91,"Pacific Union Club",-122.411324,37.791788
"625",3503,100,"Starbucks Coffee",-122.402687,37.794703
"626",3504,100,"Oriental Pearl Restaurant",-122.405994,37.794347
"627",3510,84,"City View Restaurant",-122.404074,37.794127
"628",3515,100,"Boudin Bakery",-122.396184,37.795108
"629",3519,100,"Eclipse Cafe",-122.396457,37.794168
"630",3522,85,"Bow Hon Restaurant",-122.406367,37.794958
"631",3528,79,"Hunan Home's Restaurant",-122.405594,37.796188
"632",3529,76,"Great Eastern Restaurant",-122.405918,37.796093
"633",3536,92,"Mrs. T's Cafe",-122.40356,37.796474
"634",3543,94,"Penang Garden  Restaurant",-122.405543,37.795288
"635",3543,94,"Penang Garden  Restaurant",-122.405543,37.795288
"636",3547,96,"Golden Star Vietnamese Restaurant",-122.405724,37.794555
"637",3548,94,"Belden Taverna",-122.403778,37.791398
"638",3550,90,"Noah's New York Bagels #2113",-122.399834,37.791348
"639",3561,96,"Lee's Deli",-122.402435,37.791464
"640",3566,90,"Mandalay Restaurant",-122.464041,37.785117
"641",3566,90,"Mandalay Restaurant",-122.464041,37.785117
"642",3571,94,"CITY CLUB",-122.400835,37.791714
"643",3575,98,"Alfred's Steakhouse",-122.404457,37.794893
"644",3586,94,"The Pig & Whistle",-122.449171,37.782113
"645",3594,98,"CELIAS RESTAURANT",-122.505209,37.760423
"646",3607,96,"TERRACE CAFE",-122.502535,37.73017
"647",3612,81,"GARIBALDIS ON PRESIDIO",-122.447064,37.788433
"648",3614,98,"Taqueria ""Los Coyotes"" #2",-122.420402,37.765028
"649",3615,94,"TARTINE BAKERY",-122.423862,37.761531
"650",3616,94,"THE LIBERTIES IRISH BAR & REST.",-122.423256,37.75527
"651",3626,92,"Beretta",-122.420786,37.753823
"652",3631,96,"NOC NOC",-122.431336,37.771964
"653",3633,90,"Magnolia Pub & Brewery",-122.445311,37.770271
"654",3639,79,"CHA-CHA-CHA RESTAURANT",-122.452067,37.769314
"655",3642,96,"ABSINTHE PASTRY",-122.421458,37.777492
"656",3643,94,"SUPPENKUCHE",-122.426264,37.776294
"657",3646,98,"THE MINT B & R INC.",-122.425708,37.770204
"658",3651,96,"PANCHO VILLA",-122.421234,37.764897
"659",3655,96,"VERDI CLUB",-122.407607,37.763245
"660",3661,93,"LA CUMBRE",-122.421826,37.764553
"661",3674,96,"Holiday Inn - Golden Gateway",-122.422034,37.789457
"662",3676,85,"Chinatown Restaurant",-122.405943,37.795248
"663",3677,92,"Mollie Stone's Tower Market",-122.452425,37.744876
"664",3699,94,"MATTERHORN RESTAURANT",-122.423824,37.797184
"665",3700,100,"CHESTNUT ST. COFFEE ROASTERY",-122.441702,37.800073
"666",3707,100,"Zingari",-122.410397,37.787983
"667",3711,90,"Gaylord India Restaurant",-122.399642,37.794588
"668",3727,90,"ACE WASABI'S ROCK N ROLL SUSHI",-122.437834,37.800215
"669",3728,92,"GOLD CLUB, THE",-122.399569,37.785784
"670",3736,94,"SAFEWAY #2646",-122.464955,37.774758
"671",3738,91,"CINDERELLA BAKERY & CAFE",-122.463353,37.777299
"672",3752,98,"Pauline's Pizza",-122.422275,37.768677
"673",3757,96,"EL VALENCIANO",-122.420846,37.754434
"674",3769,94,"BURGER KING",-122.407785,37.785094
"675",3770,86,"BLONDIE'S PIZZA",-122.407838,37.785207
"676",3784,94,"BLOWFISH SUSHI",-122.409931,37.759488
"677",3790,100,"The Clift Hotel (Spanish Suite)",-122.411136,37.786974
"678",3791,96,"The Clift Hotel (Main Kitchen)",-122.411136,37.786974
"679",3794,90,"Biscuits & Blues",-122.409925,37.787324
"680",3795,84,"French Club",-122.409897,37.787517
"681",3796,100,"Johnny Foley's Irish House",-122.408697,37.786314
"682",3797,94,"SF Hilton - Cityscape",-122.418985,37.779847
"683",3798,100,"SF Hilton - Banquet Kitchen",-122.410467,37.786094
"684",3800,100,"MARRAKECH MORROCAN RESTAURANT",-122.411629,37.785924
"685",3809,93,"Max's Market",-122.403567,37.792773
"686",3816,78,"Washington Bakery & Restaurant",-122.405845,37.795174
"687",3817,83,"Happy Chinese Restaurant",-122.410097,37.796848
"689",3838,96,"CAFE PICARO",-122.422442,37.764908
"690",3839,100,"EL TORO TAQUERIA",-122.421784,37.763458
"691",3846,76,"WARAKABUNE RESTAURANT",-122.428746,37.765933
"692",3855,86,"RAINBOW GROCERY",-122.41555,37.769377
"693",3858,83,"HUNAN RESTAURANT",-122.399199,37.786944
"694",3859,96,"THIRSTY BEAR BREWING CO",-122.399812,37.785518
"695",3861,90,"CINCO DE MAYO TAQUERIA & GROCERY",-122.405381,37.731788
"696",3864,87,"3rd Street Grill",-122.392952,37.779063
"697",3868,91,"BARNEY'S",-122.434992,37.751268
"698",3870,91,"LA ALTENA",-122.421546,37.743206
"699",3892,90,"PORTICO",-122.396728,37.792875
"700",3896,100,"MCDONALD'S",-122.392591,37.778773
"701",3898,83,"RISTORANTE UMBRIA",-122.398309,37.786797
"702",3899,96,"FIREWOOD CAFE",-122.436913,37.760788
"703",3902,94,"St. Francis Memorial Hospital - Employees Cafeteria",-122.417077,37.789608
"704",3910,92,"2001 THAI STICK",-122.433694,37.788104
"705",3920,94,"BOSTON MARKET",-122.409002,37.765708
"706",3924,98,"San Francisco Soup Company",-122.402403,37.791151
"707",3929,89,"OPERA HOUSE - BASEMENT,LOWER LOUNGE",-122.420031,37.778272
"708",3935,96,"Le Colonial, SF, LLC",-122.412394,37.788108
"709",3936,94,"Boudin Bakery",-122.407417,37.787423
"710",3942,92,"BAY WATCH",-122.437264,37.799727
"711",3955,90,"PARAGON RESTAURANT & BAR",-122.390362,37.780534
"712",3959,100,"Hornblower - Santa Rosa",-122.39319,37.794551
"713",3960,100,"GAP INC.",-122.390218,37.790793
"714",3962,94,"CROSSROADS CAFE",-122.389081,37.783014
"715",3972,98,"SEASONS BAR",-122.404852,37.786476
"716",3982,92,"SLIM'S",-122.413439,37.771501
"717",4037,86,"EDINBURGH CASTLE PUB",-122.418952,37.786059
"718",4056,100,"Ferry Plaza Wine Merchant",-122.39377,37.795225
"719",4057,89,"SF MARRIOTT BIN (formerly ATRIUM LOUNGE)",-122.404752,37.784964
"720",4068,96,"Roaring 20's",-122.406393,37.797948
"721",4072,98,"Hustler Club",-122.405455,37.797545
"722",4078,100,"Shannon Arms",-122.47584,37.742972
"723",4085,98,"HOCKEY HAVEN",-122.49781,37.775663
"724",4108,100,"San Francisco Belle",-122.39592,37.797473
"725",4127,96,"Cresta's 2211 Club",-122.422058,37.797036
"726",4145,90,"FINAL FINAL",-122.445891,37.798531
"727",4152,98,"THE GLAS KAT",-122.397741,37.779225
"728",4158,81,"Holiday Inn Fisherman's Wharf",-122.418525,37.806115
"729",4171,100,"SOUTH BEACH YACHT CLUB",-122.387677,37.78162
"730",4231,98,"The Page",-122.437154,37.772194
"731",4249,92,"Cafe Du Soleil",-122.430248,37.771368
"732",4372,100,"CLUB PUERTORRIQUENO OF SF INC.",-122.420273,37.744901
"733",4400,96,"BOTTOM OF THE HILL",-122.396135,37.765117
"734",4412,96,"The Bubble Lounge",-122.403283,37.795918
"735",4416,94,"Sweetie's",-122.412971,37.804685
"736",4421,94,"Crepe Cafe",-122.410189,37.80824
"737",4424,100,"OUTTA HERE",-122.452065,37.775117
"738",4434,96,"NOE VALLEY BAKERY & BREAD CO.",-122.433409,37.751314
"739",4438,90,"DIANA MARKET #2",-122.406761,37.774722
"740",4444,92,"JAMBA JUICE #138",-122.400998,37.787838
"741",4445,90,"MARTHA & BROS. COFFEE COMPANY",-122.428952,37.751638
"742",4449,91,"Universal Bakery Inc.",-122.422687,37.741317
"743",4461,88,"Cottage Market",-122.410392,37.790022
"744",4462,84,"Hotwok Express, Inc",-122.400764,37.796954
"745",4465,94,"Freddie's Sandwiches",-122.410284,37.805128
"746",4469,94,"Boudin Restaurant",-122.415157,37.808352
"747",4474,100,"17th & Noe Market",-122.433242,37.762638
"748",4475,100,"Spot Light Market",-122.424311,37.766424
"749",4476,100,"AFC Sushi @ Safeway 4601",-122.398887,37.796984
"750",4478,98,"AFC Sushi @ Safeway #1490",-122.409002,37.765708
"751",4479,85,"Courtney's Produce II",-122.435576,37.767194
"752",4480,100,"STARBUCKS COFFEE #545",-122.431629,37.751413
"753",4481,94,"Bi Rite Market",-122.424688,37.761483
"754",4483,94,"NOE BAGEL",-122.430439,37.751493
"755",4492,100,"Mollie Stone's Grand Central Market (Mezzanine Level)",-122.434697,37.788773
"756",4495,100,"Golden Gate Meat Co",-122.39377,37.795225
"757",4505,96,"VARIETY CONVENIENCE STORE",-122.419929,37.774693
"758",4509,96,"AFC SUSHI @ SAFEWAY 1507",-122.427549,37.768743
"759",4512,98,"BRANNAN STREET CAFE",-122.391479,37.782334
"760",4519,98,"HSS 121 CAFE",-122.477084,37.720851
"761",4530,100,"MOSCONE CENTER - MAIN KITCHEN",-122.401533,37.784128
"762",4534,96,"Jamba Juice Co",-122.403706,37.789465
"763",4535,91,"GUARDINO'S SOUVENIR & GIFT SHOP",-122.413169,37.795202
"764",4538,100,"LUCCA FOOD & WINE SHOP",-122.478198,37.763457
"765",4539,96,"PEET'S COFFEE & TEA",-122.466459,37.740283
"766",4542,96,"Shaws San Francisco",-122.467317,37.739565
"767",4544,86,"GENE'S LIQUOR",-122.48979,37.742403
"768",4545,96,"7-Eleven Food Store",-122.464552,37.7262
"769",4546,94,"LONDON MARKET & DELI",-122.440667,37.788924
"770",4555,90,"UNITED LIQUORS & DELI",-122.442977,37.799934
"771",4558,94,"KING'S BAKERY",-122.418414,37.751356
"772",4559,96,"PACIFIC FOOD MART",-122.436498,37.785623
"773",4586,94,"THE CAKE HOUSE",-122.441289,37.716039
"774",4590,78,"TAQUERIA CAN-CUN  RESTAURANT",-122.410305,37.78215
"775",4593,100,"Biscoff Coffee Corner",-122.410189,37.80824
"776",4594,92,"DOUBLE ROCK GROCERY",-122.391223,37.721141
"777",4618,100,"Market May Flower & Deli",-122.413428,37.789531
"778",4620,90,"WELCOME SUPER MARKET",-122.408682,37.776057
"779",4623,84,"Yo Yo's",-122.401134,37.797668
"780",4630,100,"Zanze's Cheesecake",-122.469855,37.730139
"781",4634,96,"Lombard Heights Market",-122.409744,37.803103
"782",4636,100,"STARBUCKS COFFEE",-122.475639,37.728497
"783",4638,84,"Sunset Bakery",-122.48591,37.758941
"784",4650,93,"BALBOA BI-RITE MARKET",-122.485239,37.776243
"785",4656,94,"STARBUCKS COFFEE CO",-122.403989,37.784247
"786",4661,82,"HAPPY DONUT",-122.418129,37.775975
"787",4665,88,"7-ELEVEN #20473",-122.490032,37.742448
"788",4667,96,"EMPIRE THEATRE",-122.466749,37.739883
"789",4668,79,"GOLDEN BEAR MARKET",-122.48591,37.758941
"790",4669,96,"7-ELEVEN",-122.505926,37.760673
"791",4670,88,"SUNSET SUPER",-122.49728,37.738333
"792",4671,96,"MARCO POLO ITALIAN ICE CREAM",-122.481566,37.742728
"793",4672,85,"IRVING SEAFOOD MARKET",-122.480921,37.763428
"794",4678,98,"ANDRE-BOUDIN BAKERIES",-122.468635,37.781139
"795",4681,100,"SUBWAY",-122.490712,37.753638
"796",4683,100,"JAVA ON OCEAN",-122.460205,37.724778
"797",4685,96,"NORMAN'S LIQUOR & DELI",-122.469193,37.714204
"798",4686,92,"RICE GARDEN",-122.490438,37.733944
"799",4687,84,"MAN HING MARKET",-122.48591,37.758941
"800",4688,96,"Mrs. Fields Cookies",-122.475639,37.728497
"801",4692,98,"FRIENDS LIQUOR",-122.433121,37.785717
"802",4694,94,"CONVENIENCE DELI & GROCERY",-122.427485,37.782294
"803",4700,92,"STEWART'S MARKET",-122.441498,37.785093
"804",4702,96,"SHUFAT MARKET",-122.427688,37.751664
"805",4703,94,"LA CANASTA TAKE-OUT",-122.432196,37.797667
"806",4705,78,"GINO'S GROCERY COMPANY",-122.434537,37.792598
"807",4706,94,"SHERMAN MARKET",-122.425566,37.798434
"808",4713,92,"JOCELYN'S BAKERY",-122.420372,37.758578
"809",4716,88,"MICHAELIS WINE & SPIRITS",-122.435334,37.797138
"810",4718,94,"MAY FLOWER MKT.",-122.434474,37.792455
"811",4729,92,"Paradise Coffee & Donut",-122.412207,37.785846
"812",4734,88,"LUCCA DELICATESSEN",-122.438354,37.800568
"813",4739,82,"LEE'S DELI",-122.399563,37.790697
"814",4746,91,"LEE'S DELI",-122.39292,37.791588
"815",4753,92,"Tan's Cafe III",-122.408075,37.805286
"816",4754,88,"New Russian Hill Market",-122.414986,37.795951
"817",4755,98,"Aunt Fanny's Hot Pretzels",-122.411234,37.802479
"818",4777,92,"SOUTH BEACH CAFE",-122.388484,37.781556
"819",4782,90,"CANTON DIM SUM HOUSE",-122.397932,37.784557
"820",4787,68,"TONY BALONEY'S",-122.40943,37.778033
"821",4789,100,"WHITCOMB  HOTEL- EMPLOYEES / BSMT CAFETERIA",-122.415182,37.778357
"822",4791,96,"SOUTH PARK CAFE",-122.394369,37.781564
"823",4794,94,"VICTOR'S",-122.393089,37.778634
"824",4797,88,"Good Life Grocery, The",-122.416683,37.739053
"825",4800,96,"NEW COLLEGE HILL MARKET",-122.424503,37.736021
"826",4801,96,"YICK'S LIQUOR",-122.436017,37.72304
"827",4804,96,"SUBWAY #31419",-122.40413,37.728933
"828",4806,96,"WHITE PALACE LIQUOR & DELI",-122.405852,37.732344
"829",4819,96,"Starbucks Coffee",-122.398373,37.791742
"830",4824,100,"THE GAP CAFE",-122.388962,37.789177
"831",4842,90,"GEORGE'S ZOO",-122.501599,37.735488
"832",4843,90,"SUNNY COUNTRY FOODS",-122.452584,37.764384
"833",4849,98,"FAMILY MARKET",-122.458851,37.713219
"834",4859,96,"7-ELEVEN STORE 2230-23342E",-122.457571,37.709683
"835",4860,98,"PLAY FIELD CAFE",-122.502535,37.73017
"836",4873,98,"MEREB MARKET",-122.423674,37.760097
"837",4874,96,"JUMP START COFFEE & GROCERY",-122.422914,37.752118
"838",4881,96,"STOP N SHOP",-122.418144,37.748924
"839",4884,92,"LUCCA RAVIOLI CO",-122.420995,37.755177
"840",4892,92,"NIMERS MARKET",-122.443297,37.776174
"841",4893,98,"S & W MARKET",-122.428627,37.772323
"842",4894,94,"SUNRISE MARKET",-122.433493,37.771748
"843",4896,98,"Ben & Jerry's Haight-Ashbury",-122.446644,37.770068
"844",4906,96,"NEW STAR MARKET",-122.419299,37.768274
"845",4920,91,"A B C MARKET",-122.408789,37.749612
"846",4922,89,"EL FARO",-122.414656,37.759054
"847",4932,100,"Good Luck Market & Deli",-122.404704,37.793882
"848",4944,98,"FRENCH BAKERY",-122.478149,37.742914
"849",4947,98,"AVENUE FINE FOODS",-122.425527,37.794494
"850",4950,94,"CAFE IN THE PARK",-122.484058,37.723112
"851",4957,88,"Safeway Stores Inc #711",-122.433106,37.805073
"852",4959,92,"THAT'S IT MARKET",-122.418576,37.753973
"853",4978,94,"Angel's Market",-122.433746,37.748214
"854",4982,90,"FRANKLIN MARKET",-122.423627,37.788658
"855",4983,92,"Young Ellis Produce",-122.412761,37.784961
"856",4985,96,"Sweet Mart",-122.405723,37.795188
"857",4987,92,"ROSSI'S DELI",-122.435168,37.761954
"858",4992,92,"HEALTHY SPIRITS",-122.435386,37.765673
"859",5000,96,"PEET'S COFFEE & TEA",-122.432012,37.764947
"860",5006,92,"LA MEJOR BAKERY",-122.41916,37.752156
"861",5011,89,"STARBUCKS COFFEE CO",-122.415182,37.778357
"862",5017,86,"COLLEGE MARKET",-122.422397,37.783613
"863",5018,100,"McDONALD'S",-122.418126,37.775977
"864",5019,96,"PEET'S COFFEE & TEA",-122.409002,37.765708
"865",5025,96,"PIZZA HUT",-122.421363,37.743313
"866",5032,100,"MITCHELLS ICE CREAM",-122.422722,37.744122
"867",5033,96,"DESTINATION BAKING COMPANY",-122.432379,37.734619
"868",5038,92,"MARINA DELI",-122.440927,37.800194
"869",5039,96,"PRESIDIO THEATRE",-122.441914,37.800128
"870",5049,83,"LEE'S DELI",-122.400052,37.787113
"871",5053,85,"JAVA TRADING CO",-122.406555,37.782659
"872",5054,100,"HOT DOG BILLS #1 (Lakeside)",-122.497934,37.708887
"873",5068,85,"CITY KINETICS",-122.394573,37.792137
"874",5071,100,"CAFE-ROSSO",-122.477084,37.720851
"875",5077,96,"SEAKOR DELI",-122.483181,37.780054
"876",5083,96,"AMC-Level #2",-122.421052,37.784784
"877",5084,98,"AMC-Level #4",-122.421052,37.784784
"878",5085,94,"AMC-Level #7",-122.421052,37.784784
"879",5091,98,"Crab Cake & Sweet",-122.410189,37.80824
"880",5096,92,"POPEYES-GENEVA & MISSION",-122.441187,37.716643
"881",5104,100,"In-N-Out Burger",-122.417887,37.807923
"882",5110,94,"McDONALD'S #17079",-122.400641,37.789838
"883",5118,92,"KFC",-122.478732,37.742948
"884",5120,89,"DOMINO'S PIZZA",-122.497162,37.753368
"885",5124,90,"PIZZA HUT #758280",-122.415454,37.786477
"886",5136,100,"Taco Bell",-122.396464,37.793874
"887",5137,94,"McDonald's",-122.398954,37.793914
"888",5144,100,"POPEYES CHICKEN & BISCUIT",-122.437804,37.774873
"889",5150,94,"Kentucky Fried Chicken",-122.424782,37.769758
"890",5156,94,"McDONALD'S",-122.407565,37.765507
"891",5232,100,"GLOBAL GOURMET CATERING",-122.387493,37.758887
"892",5239,100,"San Francisco Ladies Protection & Relief Society",-122.408422,37.793049
"893",5243,100,"CHRISTOPHER'S CATERING",-122.390225,37.739197
"894",5252,94,"DAY DARMET CATERING",-122.380207,37.72608
"895",5254,100,"BETTY ZLATCHIN CATERING",-122.390879,37.755483
"896",5267,98,"Knights Catering",-122.383872,37.741939
"897",5268,100,"SAN FRANCISCO MUSEUM OF MODERN ART",-122.401192,37.785643
"898",5272,100,"PAN-O-RAMA",-122.411254,37.762921
"899",5289,96,"San Francisco Crepe Co, Inc",-122.406761,37.774722
"900",5291,92,"EL TONAYENSE CATERING TRUCK",-122.413239,37.760583
"901",5297,84,"EL NORTENO",-122.402466,37.776011
"902",5301,93,"Tacos San Buena",-122.415121,37.749851
"903",5301,93,"Tacos San Buena",-122.415121,37.749851
"904",5325,100,"SAN FRANCISCO SOUP COMPANY",-122.403305,37.776775
"905",5430,87,"Annie's Hot Dogs",-122.418985,37.779847
"906",5434,96,"Annie's Hot Dogs",-122.418985,37.779847
"907",5437,100,"Stanley's Steamers",-122.408452,37.791586
"908",5441,94,"Annie's Hot Dogs",-122.418985,37.779847
"909",5455,100,"AT&T -  CARVERY Stand-Field level",-122.391151,37.778382
"910",5479,100,"AT&T -  JOE GARCIA, Edsel Ford Fong, Wine Bar  Stand",-122.391151,37.778382
"911",5480,100,"AT&T -  Ballpark Snacks Stand",-122.391151,37.778382
"912",5507,100,"AT&T - Cable Car Bar - Centerfield",-122.391151,37.778382
"913",5533,96,"LEAPING LEMUR CART",-122.48629,37.721453
"914",5552,100,"WILDLIFE CONNECTION ESPRESSO CART",-122.502535,37.73017
"915",5562,94,"NY FRANKFURTER / COFFEE CART",-122.418985,37.779847
"916",5564,93,"Aramark at Grace Cathedral",-122.413334,37.791538
"917",5605,88,"CALIF PACIFIC MEDICAL CTR - CART",-122.431039,37.791426
"918",5606,94,"CALIFORNIA PACIFIC MEDICAL CENTER",-122.435736,37.768922
"919",5607,77,"SFSU STATION CAFE",-122.477084,37.720851
"920",5610,98,"NY Frankfurter / Hot Dog Cart",-122.418985,37.779847
"921",5617,100,"AT&T - BON APPETIT KITCHEN & Concession Stand [145165]",-122.391151,37.778382
"922",5618,96,"AT&T - DOGGIE DINER room 3228 [145164]",-122.391151,37.778382
"923",5620,96,"AT&T -Espresso-Dessert carts & room 4.29.02-suite level [145144]",-122.391151,37.778382
"924",5621,100,"AT&T - Pub Murph's Guiness Club House/Room5302 [145151]",-122.391151,37.778382
"925",5622,84,"AT&T - VENDING COMMISSARY [145152]",-122.393914,37.757923
"926",5623,100,"AT&T - DOGGIE DINNER Room 5310 [145153]",-122.391151,37.778382
"927",5624,98,"AT&T - DERBY GRILL Room 5311 [145154]",-122.391151,37.778382
"928",5626,100,"AT&T - DOGGIE DINNER-Room 5318/v [145156]",-122.391151,37.778382
"929",5627,94,"AT&T - SAY HEY SAUSAGE-Room 5319 [145157]",-122.391151,37.778382
"930",5628,98,"AT&T - Derby Grill- Room 5323/view [145158]",-122.393914,37.757923
"931",5629,98,"AT&T - DOGGIE DINNER - Room 5325 [145159]",-122.391151,37.778382
"932",5630,100,"AT&T - VENDING COMMISSARY Rm5326 [145160]",-122.391151,37.778382
"933",5631,94,"AT&T -Room 5331 GILROY GARLIC FRIES/view [145161]",-122.391151,37.778382
"934",5632,90,"AT&T - DOGGIE DINNER - Rm 5333/v [145162]",-122.391151,37.778382
"935",5633,96,"AT&T - FIELD CLUB CONCESSION [145185]",-122.391151,37.778382
"936",5634,96,"AT&T - COMMISARY KITCHEN [145184]",-122.391151,37.778382
"937",5635,96,"AT&T - EMPLOYEE TRAINING RM F/L [145183]",-122.391151,37.778382
"938",5636,98,"AT&T - DRY STORAGE [145182]",-122.391151,37.778382
"939",5641,100,"AT&T - DOGGIE DINER Room 2112 [145173]",-122.391151,37.778382
"940",5642,98,"AT&T - Room 2114 Budweiser [145174]",-122.391151,37.778382
"941",5643,98,"AT&T - GILROY GARLIC FRIES Room 2118 [145175]",-122.391151,37.778382
"942",5644,86,"AT&T - DOGGIE DINER room 2121 [145176]",-122.391151,37.778382
"943",5645,98,"AT&T - SAY HEY SAUSAGE room 2127 [145177]",-122.391151,37.778382
"944",5646,85,"AT&T -Room 2130 Derby Grill/Port Walk Pizza [145178]",-122.391151,37.778382
"945",5647,100,"AT&T - DOGGIE DINER room 2134 [145179]",-122.391151,37.778382
"946",5648,100,"AT&T - VENDING ROOM [145180]",-122.391151,37.778382
"947",5649,92,"AT&T - DOGGIE-SAUSAGE-/Room 2142 [145181]",-122.391151,37.778382
"948",5650,98,"AT&T - DOGGIE DINER room 3205 [145167]",-122.391151,37.778382
"949",5651,98,"AT&T - BON APPETIT Room 3209 [145168]",-122.391151,37.778382
"950",5652,100,"AT&T - STORE ROOM WALK-IN BOX [145166]",-122.391151,37.778382
"951",5653,92,"S. F. Chowder A Chili Cart",-122.410189,37.80824
"952",5654,96,"S. F. Gourmet Hot Dog Cart",-122.410189,37.80824
"953",5657,100,"AT&T - CABLE CAR BAR (PROMENADE) [146520]",-122.391151,37.778382
"954",5658,100,"AT&T - CABLE CAR BAR (VIEW) [146519]",-122.391151,37.778382
"955",5744,98,"Fun Food Partners - Aunt Fanny's",-122.409411,37.668824
"956",5767,94,"PUNLA PARKVIEW INN",-122.443342,37.770144
"957",5786,96,"UNION STREET INN",-122.435968,37.796977
"958",5787,100,"LAWTON ELEMENTARY SCHOOL",-122.489596,37.758013
"959",5788,89,"ULLOA ELEMENTARY SCHOOL",-122.499923,37.737289
"960",5789,100,"STEVENSON ELEMENTARY SCHOOL",-122.492255,37.748853
"961",5790,96,"GIANNINI MIDDLE SCHOOL",-122.497233,37.751406
"962",5791,96,"NEW SUNSET ELEMENTARY SCHOOL",-122.499814,37.750928
"963",5792,100,"KEY ELEMENTARY SCHOOL",-122.502465,37.758108
"964",5794,100,"LINCOLN HIGH SCHOOL",-122.481299,37.747228
"965",5796,100,"APTOS MIDDLE SCHOOL",-122.466238,37.730198
"966",5797,100,"SLOAT ELEMENTARY SCHOOL",-122.470957,37.731868
"967",5800,96,"John Chin Elementary School",-122.403154,37.798358
"968",5801,100,"FLYNN ELEMENTARY SCHOOL",-122.41197,37.748264
"969",5802,100,"LOWELL HIGH SCHOOL",-122.483578,37.731027
"970",5803,100,"SUNNYSIDE ELEMENTARY SCHOOL",-122.448801,37.730307
"971",5804,100,"JUNIPERO SERRA ELEMENTARY SCHOOL",-122.421132,37.736683
"972",5805,100,"ORTEGA ELEMENTARY SCHOOL",-122.466248,37.716156
"973",5807,98,"SHERIDAN ELEMENTARY SCHOOL",-122.459115,37.714304
"974",5808,100,"BALBOA HIGH SCHOOL",-122.43983,37.722067
"975",5810,100,"DENMAN MIDDLE SCHOOL",-122.442876,37.721825
"976",5812,98,"Zaida T. Rodriguez (ZTR) Annex Child Development Center",-122.419293,37.750243
"977",5814,100,"FAIRMOUNT ELEMENTARY SCHOOL",-122.425576,37.740395
"978",5815,94,"ALVARADO ELEMENTARY SCHOOL",-122.438696,37.753684
"979",5817,96,"LAKESHORE ELEMENTARY SCHOOL",-122.4861,37.730637
"980",5818,98,"MISSION ED. CENTER ELEMENTARY",-122.43104,37.742294
"981",5819,98,"MIRALOMA ELEMENTARY SCHOOL",-122.450227,37.739266
"982",5820,100,"GLEN PARK ELEMENTARY SCHOOL",-122.435998,37.73322
"983",5821,96,"MOSCONE ELEMENTARY SCHOOL",-122.412293,37.756231
"984",5823,94,"WEBSTER ELEMENTARY SCHOOL",-122.396296,37.760474
"985",5825,100,"GUADALUPE ELEMENTARY SCHOOL",-122.434202,37.710464
"986",5827,93,"HILLCREST ELEMENTARY SCHOOL",-122.419253,37.729016
"987",5828,96,"GEORGE WASHINGTON HIGH SCHOOL",-122.492005,37.777772
"988",5829,96,"LAFAYETTE ELEMENTARY SCHOOL",-122.49649,37.777603
"989",5830,96,"Theodore Roosevelt Middle School",-122.458926,37.782383
"990",5830,96,"Theodore Roosevelt Middle School",-122.458926,37.782383
"991",5831,100,"FRANK MCCOPPIN ELEMENTARY SCHOOL",-122.462787,37.778382
"992",5834,100,"Presidio Middle School",-122.490105,37.780823
"993",5835,94,"Rosa Parks Elementary School",-122.430141,37.783604
"994",5837,100,"MCKINLEY ELEMENTARY SCHOOL",-122.436377,37.767231
"995",5838,90,"HARVEY MILK ELEMENTARY SCHOOL",-122.436488,37.759173
"996",5839,98,"ALICE FONG YU ELEMENTARY SCHOOL",-122.469292,37.759386
"997",5841,92,"JEFFERSON ELEMENTARY SCHOOL",-122.476332,37.763543
"998",5842,90,"GRATTAN ELEMENTARY SCHOOL",-122.450513,37.763842
"999",5843,83,"HOOVER MIDDLE SCHOOL",-122.470308,37.745374
"1000",5844,98,"CLARENDON ELEMENTARY SCHOOL",-122.456517,37.751552
"1001",5847,100,"John Muir Elementary School",-122.429076,37.774046
"1002",5850,100,"Zaida T. Rodriguez (ZTR) Child Development Center",-122.418255,37.749837
"1003",5851,92,"ROOFTOP SCHOOL",-122.443967,37.754685
"1004",5852,96,"CARVER ELEMENTARY SCHOOL",-122.386391,37.732408
"1005",5853,100,"RAOUL WALLENBERG HIGH SCHOOL",-122.445864,37.780133
"1006",5854,92,"Gateway High/Kip Schools",-122.437747,37.783427
"1007",5855,94,"SOTA (SCHOOL OF THE ARTS)",-122.45085,37.745674
"1008",5856,87,"Sanchez School",-122.430767,37.76395
"1009",5859,98,"BURTON HIGH SCHOOL",-122.405108,37.720656
"1010",5860,100,"June Jordan",-122.425581,37.719719
"1011",5862,100,"MARTIN L. KING MIDDLE SCHOOL",-122.404921,37.728088
"1012",5863,94,"International Studies Academy",-122.401226,37.761633
"1013",5864,100,"VISITACION VALLEY MIDDLE SCHOOL",-122.411433,37.714428
"1014",5866,92,"KING ELEMENTARY SCHOOL",-122.39939,37.753196
"1015",5867,98,"MALCOLM X ELEMENTARY SCHOOL",-122.380619,37.733741
"1016",5870,98,"CARMICHAEL ELEMENTARY SCHOOL",-122.406342,37.776948
"1017",5871,100,"CHAVEZ ELEMENTARY SCHOOL",-122.415376,37.754805
"1018",5874,98,"HARTE ELEMENTARY SCHOOL",-122.389105,37.718746
"1019",5877,94,"CLAIRE LILIENTHAL SCHOOL-MADISON CA",-122.458014,37.786808
"1020",5880,98,"Francisco Middle School",-122.411617,37.804368
"1021",5881,100,"Chinese Education Center Elementary School",-122.404114,37.794909
"1022",5883,96,"Jean Parker Elementary School",-122.411234,37.802479
"1023",5884,100,"Gordon J Lau Elementary School",-122.408734,37.794008
"1024",5885,100,"Spring Valley Elementary School",-122.418857,37.794434
"1025",5886,100,"Redding Elementary School",-122.419277,37.789753
"1026",5888,92,"Bryant Elementary School",-122.404626,37.751776
"1027",5889,98,"O'CONNELL HIGH SCHOOL",-122.414674,37.75962
"1028",5891,94,"FILIPINO ED. CTR ELEMENTARY SCHOOL",-122.400308,37.780295
"1029",5892,94,"MISSION HIGH SCHOOL",-122.427293,37.761425
"1030",5893,100,"CLEVELAND ELEMENTARY SCHOOL",-122.429004,37.720765
"1031",5894,100,"SAN FRANCISCO COMMUNITY ELEM.SCHOOL",-122.432348,37.725657
"1032",5895,100,"Downtown High School",-122.404146,37.761354
"1033",5897,100,"BRET HARTE CHILDREN'S CENTER",-122.390006,37.718375
"1034",5898,100,"MONROE ELEMENTARY SCHOOL",-122.430106,37.725199
"1035",5901,98,"Garfield Elementary School",-122.406534,37.801794
"1036",5902,90,"Galileo High School",-122.424084,37.803347
"1037",5903,100,"Yick Wo Elementary School",-122.416254,37.801964
"1038",5905,96,"MARINA MIDDLE SCHOOL",-122.43641,37.801776
"1039",5908,98,"SHERMAN ELEMENTARY SCHOOL",-122.426167,37.798243
"1040",5912,100,"ARGONNE ALTERNATIVE ELEMENTARY SCHO",-122.476785,37.775155
"1041",5913,96,"ST CHARLES SCHOOL",-122.416107,37.762074
"1042",5919,100,"SAN FRANCISCO DAY SCHOOL",-122.446877,37.777988
"1043",5925,94,"ARCHBISHOP RIORDAN HIGH SCHOOL CAFE",-122.45245,37.727337
"1044",5926,100,"SAN FRANCISCO SCHOOL, THE",-122.411648,37.732518
"1045",5927,94,"CORNERSTONES ACADEMY",-122.418728,37.729108
"1046",5935,100,"ST GABRIEL SCHOOL",-122.499046,37.739514
"1047",5937,100,"HERGE SCHOOL",-122.425694,37.800278
"1048",5938,98,"HAMLIN",-122.432474,37.794608
"1049",5940,100,"Sts. Peter & Paul School",-122.410384,37.801278
"1050",5942,100,"EPIPHANY ELEMENTARY",-122.434402,37.715985
"1051",5946,98,"Notre Dame des Victoires",-122.406497,37.791393
"1052",5948,100,"BRANDEIS-HILLEL DAY SCHOOL",-122.475282,37.713935
"1053",5950,94,"LICK-WILMERDING HIGH SCHOOL",-122.448971,37.722933
"1054",5951,98,"ST. THOMAS MORE",-122.47308,37.712259
"1055",5952,98,"IMMACULATE CONCPTION ACADEMY",-122.423558,37.751923
"1056",5953,100,"ST PETER'S PARISH SCHOOL",-122.41,37.751678
"1057",5955,96,"SF CHRISTIAN DAY SCHOOL",-122.448082,37.709896
"1058",5958,100,"ST. THOMAS THE APOSTLE",-122.499709,37.775573
"1059",5959,96,"ST. JOHN'S SNACK BAR",-122.437679,37.735264
"1060",5960,94,"ST. ANNE",-122.471582,37.763403
"1061",5961,93,"ST VINCENT DE PAUL",-122.43789,37.795882
"1062",5962,96,"HILLWOOD SCHOOL",-122.439834,37.793364
"1063",5963,96,"Mother Goose School",-122.488126,37.783013
"1064",5965,100,"EUREKA LEARNING CENTER",-122.436685,37.754988
"1065",5966,96,"St. Ignatius",-122.495556,37.749624
"1066",5968,100,"Chinese Hospital",-122.409173,37.795663
"1067",5969,100,"EDEN VILLA-SAN FRANCISCO",-122.448764,37.782418
"1068",5970,96,"Heritage, The",-122.431547,37.802798
"1069",5974,100,"RICHMOND SENIOR CENTER - 3RD FLOOR",-122.486199,37.779943
"1070",5975,98,"ST. JOHN OF GOD SENIOR MEALS PROGRA",-122.461978,37.764408
"1071",5976,100,"RICHMOND YMCA SENIOR CENTER",-122.477265,37.781253
"1072",5977,100,"SF Adult Day Services",-122.454822,37.713253
"1073",5980,96,"Presentation Adult Day Health",-122.411458,37.785033
"1074",5982,94,"SF Senior Center at Aquatic Park Meals Program",-122.423704,37.806258
"1075",5985,100,"San Francisco Senior Center Downtown Branch",-122.412648,37.785789
"1076",5986,100,"North & South of Market ADHC",-122.416373,37.781568
"1077",5988,83,"Curry Senior Center",-122.414527,37.782703
"1078",5990,98,"MISSION YMCA SENIOR MEALS PROGRAM",-122.427831,37.732292
"1079",5992,94,"RUSSIAN AMERICAN COMMUNITY SVC",-122.449974,37.780768
"1080",5993,100,"SELF-HELP FOR THE ELDERLY",-122.481229,37.780174
"1081",5994,100,"FAMILY SERVICE AGENCY OF S.F.",-122.424136,37.782727
"1082",5995,100,"On Low Wui Senior Center",-122.408452,37.791586
"1083",5997,100,"STONESTOWN FAMILY YMCA (SR. ANNEX)",-122.47588,37.730576
"1084",5998,100,"CENTRO LATINO DE SAN FRANCISCO",-122.421263,37.766618
"1085",5999,92,"The Salvation Army",-122.420915,37.754397
"1086",6000,100,"Mission Neighborhood Centers",-122.418215,37.761007
"1087",6001,96,"PRESIDIO GATE APARTMENTS",-122.446784,37.798558
"1088",6003,100,"JOSEPH LEE RECREATION CENTER",-122.389694,37.735232
"1089",6005,90,"Salvation Army Cen. Corps / Sr. Act. Ctr",-122.400338,37.781307
"1090",6007,100,"BAYVIEE HUNTER Pt. ADULT DAY HE",-122.383559,37.73241
"1091",6009,98,"Self-Help For The Elderly - Lady Shaw Senior Center",-122.411899,37.796857
"1092",6010,90,"On Lok Senior Day Health Service",-122.410374,37.797883
"1093",6012,100,"Sunset Senior Center",-122.497977,37.738334
"1094",6015,98,"Telegraph Hill Senior Meals Program",-122.412494,37.802918
"1095",6016,100,"On Lok Senior Health Services, Inc",-122.419047,37.788823
"1096",6018,100,"3RD BAPTIST FELLOWSHIP HALL",-122.434677,37.778233
"1097",6019,100,"KIMOCHI HOME",-122.426377,37.786944
"1098",6021,100,"POTRERO HILL NEIGHBORHOOD House",-122.400926,37.758134
"1099",6025,83,"KIMOCHI INC",-122.430883,37.786428
"1100",6030,90,"Woolf House Senior Center",-122.402952,37.783037
"1101",6032,100,"FRANCIS OF ASSISI SENIOR MEALS PROG",-122.424466,37.768904
"1102",6037,94,"CASTRO SENIOR CENTER",-122.437185,37.760317
"1103",6348,92,"Castro Street Chevron",-122.434755,37.762857
"1104",6356,100,"CHEVRON #1768",-122.458519,37.781193
"1105",6432,98,"CLAY THEATRE",-122.434174,37.790494
"1106",6500,94,"CHRISTA MARKET",-122.442217,37.788638
"1107",6521,100,"POTRERO TERRACE MARKET",-122.39879,37.754882
"1108",6583,98,"AKRON MEAT MARKET",-122.415221,37.758813
"1109",6619,94,"J C Market",-122.408834,37.795788
"1110",6620,79,"New Ocean Seafood & Produce",-122.408834,37.795788
"1111",6625,98,"House of Coffee",-122.481201,37.754058
"1112",6636,98,"STARBUCKS",-122.416939,37.777053
"1113",6677,100,"SNACK & BOTTLE SHOP",-122.430562,37.720524
"1114",6680,96,"Spicy Bite Food, Inc",-122.422853,37.740934
"1115",6686,94,"Chevron #1539",-122.477186,37.763802
"1116",6718,96,"General Nutrition #302",-122.401309,37.789353
"1117",6746,94,"CHEZ PAPA",-122.393914,37.757923
"1118",6748,96,"West Portal Nutrition Center",-122.467661,37.739147
"1119",6756,100,"Godiva Chocolatier Inc.",-122.475639,37.728497
"1120",6768,100,"PING'S MEAT MARKET",-122.461229,37.777286
"1121",6800,94,"Arts Valero",-122.402069,37.724053
"1122",6807,100,"QUARTS' N PINTS",-122.489972,37.753678
"1123",6813,94,"SF WINE TRADING COMPANY",-122.468991,37.743378
"1124",6860,84,"Searchlight Market",-122.418987,37.799006
"1125",6863,100,"Cheese Plus",-122.421665,37.795273
"1126",6904,96,"BUCHANAN FOOD MART",-122.430684,37.789844
"1127",6913,100,"XTRA OIL CORP",-122.387913,37.743151
"1128",6916,94,"GRAND 7 LIQUOR & DELI",-122.393975,37.749949
"1129",6962,94,"Luen Fat Market",-122.408354,37.796303
"1130",6965,82,"Hang Seng Meat Market",-122.408834,37.795788
"1131",6966,96,"M.P. Seafood Market",-122.409065,37.795786
"1132",7033,94,"Sunset Strip",-122.490019,37.761083
"1133",7056,86,"FRESH MEAT MARKET",-122.418659,37.753722
"1134",7087,87,"VALENCIA FARMER'S MARKET",-122.420585,37.752162
"1135",7093,98,"DIVISADERO HEALTH HAVEN",-122.4379,37.775185
"1136",7105,93,"CENTRAL HAIGHT MARKET",-122.4437,37.77036
"1137",7111,100,"OAK FAIR MARKET",-122.435709,37.773285
"1138",7206,98,"NOE HILL MARKET",-122.432839,37.759393
"1139",7207,86,"GOLDEN PRODUCE",-122.429024,37.768187
"1140",7210,92,"NOE VALLEY MARKET",-122.433275,37.765728
"1141",7211,96,"RELIANCE MARKET",-122.434626,37.757743
"1142",7214,94,"SUN FAT SEAFOOD",-122.418586,37.754094
"1143",7241,98,"CHEVRON #1712",-122.430864,37.800538
"1144",7243,100,"CASA LUCAS #3",-122.434216,37.725432
"1145",7335,100,"Swirl On Castro",-122.434935,37.759738
"1146",7361,89,"PastaGina",-122.436286,37.751403
"1147",7366,100,"ALL STATES BEST FOODS",-122.397589,37.759913
"1148",7375,100,"WALGREENS #05487",-122.392797,37.729277
"1149",7449,98,"CHEVRON #1760",-122.412819,37.775314
"1150",7450,90,"GENKI",-122.462822,37.783048
"1151",7457,96,"24TH STREET CHEESE COMPANY",-122.429369,37.751564
"1152",7461,100,"PACIFIC HEIGHTS CHEVRON",-122.435704,37.788708
"1153",7464,100,"Zelinsky",-122.412,37.808494
"1154",7467,89,"RUSSELL'S CONVENIENCE #621",-122.395192,37.789314
"1155",7475,98,"North Beach Food Mart",-122.413864,37.802905
"1156",7477,100,"Harbor Emperor",-122.412,37.808494
"1157",7480,96,"Union Street Produce",-122.412667,37.799973
"1158",7495,100,"LINCOLN 76",-122.509335,37.763483
"1159",7496,100,"Peralta",-122.412,37.808494
"1160",7502,90,"RUSSELL'S CONVENIENCE #604",-122.396074,37.791051
"1161",7503,100,"The Daily Habit",-122.39914,37.795227
"1162",7512,84,"SUPERETTE MARKET",-122.409814,37.784337
"1163",7517,100,"Discount Grocers",-122.420164,37.787924
"1164",7519,93,"EMPIRE MARKET",-122.414178,37.783682
"1165",7527,96,"DON CHUYS MEXI-MERCADO",-122.429309,37.724122
"1166",7528,100,"Encinal",-122.412,37.808494
"1167",7529,100,"BILLIARD PALACADE",-122.441505,37.715769
"1168",7530,98,"HILLCREST MARKET",-122.419697,37.728993
"1169",7534,90,"RUSSELL'S CONVENIENCE #605",-122.397852,37.792037
"1170",7538,96,"FREDS LIQUOR & DELI",-122.406761,37.774722
"1171",7541,100,"Fog Hill Market",-122.405816,37.800046
"1172",7546,100,"Acme Bread Company",-122.39377,37.795225
"1173",7547,100,"Sur La Table",-122.39377,37.795225
"1174",7555,100,"VINH KHANG HERBS & GINSENG",-122.464762,37.782957
"1175",7558,96,"Seafood Center",-122.46826,37.782724
"1176",7561,90,"STARCO MART",-122.410063,37.779804
"1177",7562,100,"THOM'S NATURAL FOODS/FRESH ORGANICS",-122.482169,37.780133
"1178",7571,100,"ROXIE FOOD CENTER",-122.441391,37.726948
"1179",7573,96,"Green Earth Natural Foods",-122.438287,37.777598
"1180",7575,94,"SUPER MIRA",-122.429754,37.786568
"1181",7576,98,"CHEVRON STATIONS INC. #1522",-122.422314,37.789645
"1182",7598,98,"BEVERAGES & MORE",-122.404059,37.744984
"1183",7599,100,"Intintoli",-122.412,37.808494
"1184",7600,100,"MV Vallejo",-122.412,37.808494
"1185",7601,100,"Old Blue",-122.412,37.808494
"1186",7602,91,"Oski",-122.412,37.808494
"1187",7603,94,"Royal Star",-122.412,37.808494
"1188",7605,90,"SONOMA LIQUORS",-122.406761,37.774722
"1189",7608,100,"BRYANT SHELL #4",-122.397869,37.779764
"1190",7610,98,"UNIMART",-122.411712,37.776098
"1191",7617,100,"LITTLE VILLAGE MARKET",-122.415782,37.711887
"1192",7618,100,"TEDDY GROCERY",-122.408524,37.715194
"1193",7634,100,"S & P Concessions-MS Marin",-122.39303,37.794404
"1194",7635,90,"SURFSIDE LIQUORS",-122.376657,37.732545
"1195",7640,96,"JUDAH MINI MARKET",-122.486258,37.761363
"1196",7645,84,"LUCKY PORK MARKET",-122.418626,37.754513
"1197",7646,96,"VALENCIA GROCERY",-122.420713,37.752059
"1198",7649,98,"SERV U MARKET",-122.409771,37.757608
"1199",7651,100,"24 HR CONVENIENCE MKT",-122.438144,37.776594
"1200",7653,90,"HAYES MARKET",-122.427744,37.776298
"1201",7655,98,"H & W GROCERY & LIQUOR",-122.429577,37.77598
"1202",7656,98,"PARKSIDE MARKET",-122.442811,37.774411
"1203",7661,88,"DONA TERE'S MARKET",-122.410392,37.757578
"1204",7663,94,"GGP MARKET",-122.410822,37.752748
"1205",7664,100,"NORM'S MARKET",-122.409726,37.759045
"1206",7675,100,"S & P Concessions-MS San Francisco",-122.39303,37.794404
"1207",7678,90,"Casa Thai Market",-122.420122,37.765049
"1208",7689,100,"UNOCAL 76  PACIFIC ENTERPRISES",-122.452707,37.723133
"1209",7691,94,"Golden Bear",-122.412,37.808494
"1210",7698,100,"S & P Concessions-MS Sonoma",-122.399862,37.799005
"1211",7702,100,"THE CITY STORE",-122.418295,37.750237
"1212",7708,100,"SUN VALLEY",-122.426766,37.745154
"1213",7711,90,"RICHMOND NEW MAY WAH SUPERMARKET",-122.467028,37.782784
"1214",7722,96,"Bay Monarch",-122.412,37.808494
"1215",7728,100,"PETE'S UNOCAL 76",-122.503549,37.753003
"1216",7729,96,"S & P Concessions - Del Norte Ferry",-122.39303,37.794404
"1217",7736,84,"LA LOMA PRODUCE #8",-122.418435,37.751476
"1218",7745,92,"Cost Plus, Inc",-122.41528,37.805923
"1219",7748,94,"FOODS CO. #351",-122.399114,37.730164
"1220",7755,73,"ARIZMENDI BAKERY",-122.466344,37.763448
"1221",7761,98,"LELENITA'S CAKES",-122.424163,37.736628
"1222",7762,96,"Liguria Bakery",-122.409296,37.801407
"1223",7764,98,"YASUKOCHI'S SWEET SHOP",-122.429815,37.78659
"1224",7765,96,"HILDA'S MART & BAKE SHOP",-122.434488,37.722477
"1225",7768,100,"THE CAKEMAKER",-122.426187,37.775798
"1226",7771,90,"NEW SWEETHEART BAKERY",-122.411086,37.752756
"1227",7772,94,"LA REYNA BAKERY",-122.414425,37.752549
"1228",7778,94,"PAN LIDO SALVADORENO #2 INC.",-122.441924,37.71536
"1229",7779,96,"LA MEXICANA BAKERY",-122.408285,37.752922
"1230",7783,93,"THE CHESTNUT BAKERY",-122.442146,37.800016
"1231",7786,94,"DIANDA'S ITAL-AMER.PASTRY CO.",-122.418264,37.750959
"1232",7791,100,"SF Hilton - Pastry/Bakery",-122.410207,37.786102
"1233",7796,80,"SUPER LOW MARKET",-122.433775,37.72596
"1234",7857,96,"JOLT N' BOLT",-122.387584,37.759868
"1235",7880,96,"BALLROOM BAKERY",-122.404752,37.784964
"1236",7997,96,"COSTCO WHOLESALE",-122.41051,37.770938
"1237",8005,100,"GODIVA CHOCOLATIER",-122.407563,37.784317
"1238",8122,96,"A. TARANTINO & SONS INC.",-122.3896,37.725932
"1239",8151,100,"EVERGOOD SAUSAGE COMPANY",-122.387918,37.727494
"1240",8202,86,"Xiao Loong",-122.468775,37.738616
"1241",8249,94,"Frog Hollow Farm Market",-122.39377,37.795225
"1242",8750,98,"Kokoro Assisted Living",-122.428182,37.787639
"1243",8823,100,"Miette",-122.39377,37.795225
"1244",8882,93,"Imperial Tea Court",-122.39377,37.795225
"1245",8948,88,"SEGAFREDO",-122.407764,37.784858
"1246",9103,90,"Marketbar",-122.39377,37.795225
"1247",9155,96,"STARBUCKS",-122.402645,37.765427
"1248",9156,96,"MEXICO AU PARC",-122.393423,37.782218
"1249",9164,87,"WORKING GIRLS' CAFE #4",-122.40028,37.787227
"1250",9165,94,"HARVEST & ROWE, INC.",-122.400422,37.788524
"1251",9208,96,"Nordstrom Expresso Bar",-122.475861,37.726895
"1252",9232,91,"Fillmore Street Cafe",-122.432474,37.781974
"1253",9273,86,"Taqueria Mana",-122.407104,37.790043
"1254",9283,86,"La Fonda",-122.465531,37.764108
"1255",9289,94,"Subway #27715",-122.404784,37.794305
"1256",9298,94,"El Mansour",-122.492586,37.781595
"1257",9328,88,"Boos Voni Tortas",-122.441438,37.716163
"1258",9358,100,"Edgewood Children's Center",-122.485437,37.739083
"1259",9359,92,"Curry Senior Center",-122.414367,37.782724
"1260",9436,96,"Assab",-122.450026,37.782016
"1261",9444,90,"Kiki Japanese Restaurant",-122.48591,37.758941
"1262",9456,89,"MIS ANTOJITOS RESTAURANT",-122.412245,37.756007
"1263",9463,88,"Roli Roti",-122.393819,37.795184
"1264",9463,88,"Roli Roti",-122.393819,37.795184
"1265",9582,91,"Dimples",-122.429794,37.785632
"1266",9599,96,"San Francisco Soup Company",-122.400145,37.793905
"1267",9631,96,"7-Eleven Store 2231-33429A",-122.396535,37.794066
"1268",9672,96,"San Francisco Fish Company",-122.39377,37.795225
"1269",9710,90,"RICKSHAW STOP",-122.420497,37.776223
"1270",9714,100,"Rose Resnick Lighthouse For The Blind",-122.419636,37.777647
"1271",9727,81,"7-ELEVEN STORE 2231-33434T",-122.403882,37.787287
"1272",9745,100,"Panda Express",-122.432577,37.782808
"1273",9765,96,"Windsor Tearoom",-122.409699,37.786761
"1274",9797,100,"Kaiser Permanente Nutrition - 5th floor",-122.443697,37.782683
"1275",9869,92,"Donut World",-122.48591,37.758941
"1276",9873,94,"CAFE ASIA",-122.416692,37.779603
"1277",9948,90,"Whole Foods Market",-122.399772,37.780934
"1278",10030,96,"Marshall Elementary School",-122.419014,37.766864
"1279",10099,98,"ROE RESTAURANT",-122.399422,37.785817
"1280",10127,96,"AMICI'S EAST COAST PIZZERIA",-122.392489,37.777803
"1281",10131,96,"Cybelle's Front Room",-122.48591,37.758941
"1282",10213,88,"San Francisco Crepe Co",-122.420094,37.788087
"1283",10227,82,"The Napper Tandy",-122.416482,37.752581
"1284",10238,74,"King of Thai Noodle House",-122.407764,37.786498
"1285",10280,100,"TENDERLOIN ELEMENTARY SCHOOL",-122.419777,37.782034
"1286",10282,89,"Jewish Community Center",-122.446839,37.787311
"1287",10362,100,"Crossroads",-122.452065,37.775117
"1288",10373,86,"El Tonayense #4",-122.413446,37.769426
"1289",10376,94,"Good Frikin Chicken",-122.420967,37.744369
"1290",10433,92,"Cafe La Taza",-122.409705,37.788128
"1291",10470,90,"Real Foods",-122.435607,37.797848
"1292",10540,91,"Slanted Door Restaurant",-122.39377,37.795225
"1293",10572,92,"Edison Charter Academy",-122.425999,37.755193
"1294",10615,75,"Rulli Risto-Bar",-122.441454,37.800188
"1295",10875,78,"Brendas Meat & Three",-122.438474,37.778194
"1296",10876,96,"ERNESTO'S",-122.483969,37.782033
"1297",10931,96,"ROYAL GROUND COFFEE",-122.452151,37.781736
"1298",10960,94,"FRESH & NATURAL CAFE, LLC 31",-122.443697,37.782683
"1299",10986,96,"7-Eleven Store 2231-33437T",-122.404268,37.789721
"1300",10990,98,"Tak Kee Lee Restaurant",-122.489929,37.753623
"1301",11018,87,"HAWAIIAN DRIVE-INN #28",-122.437475,37.721131
"1302",11034,86,"RITA'S CATERING TRUCK",-122.40892,37.736917
"1303",11079,96,"Cafe Bello",-122.434038,37.733771
"1304",11304,90,"HIDIVE",-122.387718,37.787914
"1305",11416,96,"El Beach Burrito",-122.503998,37.760851
"1306",11491,100,"Boulette's Larder",-122.393819,37.795184
"1307",11687,100,"MARTHA & BROTHERS",-122.454869,37.712073
"1308",11835,100,"Barrette Cafeteria",-122.47459,37.729631
"1309",11860,100,"Colibri Mexican Bistro",-122.410594,37.787098
"1310",12029,88,"BVHP MULTIPURPOSE SENIOR CTR.",-122.393657,37.728015
"1311",12083,92,"OOLA RESTAURANT & BAR",-122.402669,37.78093
"1312",12168,92,"INDIA CLAY OVEN RESTAURANT & BAR",-122.485551,37.782018
"1313",12199,94,"El Gallo Giro",-122.413285,37.754218
"1314",12285,83,"Aramark Coffee Kiosk",-122.420474,37.748118
"1315",12344,96,"The Village Market & Pizza",-122.483012,37.723462
"1316",12768,96,"VASQUEZ COFFEE CO",-122.383536,37.743419
"1317",12788,96,"LA TERRA",-122.393158,37.785856
"1318",13041,100,"Coi",-122.40349,37.798229
"1319",13062,100,"Everett Middle School",-122.428617,37.763794
"1320",13226,100,"CALIFORNIA WINE MERCHANT",-122.438217,37.800534
"1321",13313,98,"MV Solano",-122.412,37.808494
"1322",13374,94,"Rooftop Middle School",-122.4442,37.757398
"1323",13427,100,"Extreme Pizza",-122.46779,37.711185
"1324",13623,84,"CAFE MADELEINE",-122.399681,37.786803
"1325",13671,100,"AFC SUSHI @SAFEWAY 2606",-122.394175,37.776491
"1326",13753,85,"Taboun",-122.45295,37.764574
"1327",13837,87,"Le Cordon Bleu College of Culinary Arts San Francisco",-122.406761,37.774722
"1328",13965,96,"Baysubway 02",-122.408246,37.785411
"1329",14005,87,"Yuyu Sushi",-122.490726,37.733901
"1330",14071,94,"SUBWAY #30196",-122.394729,37.776858
"1331",14075,96,"BLUE BOTTLE COFFEE LLC",-122.423099,37.77634
"1332",14525,90,"Sodexo at Academy of Art",-122.399349,37.786467
"1333",14526,100,"The Gymboree Corp",-122.396419,37.788294
"1334",14568,100,"THE Art Bistro",-122.493662,37.779718
"1335",14575,86,"CITY PRODUCE",-122.406761,37.774722
"1336",14688,94,"Eagle Cafe",-122.398567,37.792343
"1337",14740,100,"Eggette Cafe",-122.497572,37.753338
"1338",14743,96,"Polly Ann Ice Cream",-122.497572,37.753338
"1339",14909,100,"White Swan Inn",-122.411247,37.789834
"1340",14910,100,"Petite Auberge",-122.411447,37.789813
"1341",14971,98,"San Francisco Public Montessori",-122.433514,37.792628
"1342",15055,92,"Ono Hawaiin BBQ",-122.489729,37.733974
"1343",15094,92,"The Marsh Cafe",-122.421078,37.755766
"1344",15120,100,"Nordstrom Espresso Bar",-122.407563,37.784317
"1345",15184,73,"Lime Tree",-122.48591,37.758941
"1346",15222,100,"San Francisco Soup Company",-122.397318,37.790897
"1347",15535,98,"Boudin Bakery & Cafe",-122.415157,37.808352
"1348",15537,100,"Le Cordon Bleu College of Culinary Arts San Francisco",-122.402645,37.765427
"1349",15738,67,"Osha Thai Restaurant",-122.398902,37.787343
"1350",15806,92,"Vital Tea Leaf",-122.406696,37.796597
"1351",16047,100,"THE RICHMOND",-122.46534,37.777123
"1352",16083,98,"Progressive Grounds",-122.409556,37.757463
"1353",16286,100,"Starbucks Coffee (Store #9743)",-122.400435,37.795366
"1354",16349,92,"L's Cafe",-122.409588,37.752764
"1355",16424,92,"Sam's Market",-122.40957,37.747496
"1356",16432,96,"AFC Sushi @ Safeway #1206",-122.412774,37.805758
"1357",16441,80,"Hawaiian Drive Inn",-122.404101,37.728718
"1358",16551,92,"Blanc et Rouge",-122.39877,37.79481
"1359",16751,82,"Nihon",-122.415586,37.768654
"1360",16784,100,"Muskaan Cuisine of India",-122.393992,37.792577
"1361",17346,100,"AFC Sushi @ Safeway #667",-122.438684,37.744076
"1362",17411,85,"Oye Managua",-122.421933,37.742375
"1363",17508,100,"International Hotel Senior Housing, Inc",-122.404978,37.795778
"1364",17522,100,"AMES - Restaurant/Bar",-122.401792,37.786134
"1365",17523,93,"St. Regis Hotel - Main Kitchen + Employee Cafeteria",-122.401792,37.786134
"1366",17524,96,"Vitrines Restaurant + 3rd floor pantry",-122.401792,37.786134
"1367",17647,86,"Enjoy Vegetarian Restaurant",-122.469081,37.760198
"1368",17656,98,"Ichiban Teriyaki",-122.398762,37.790437
"1369",17689,91,"New Mings Restaurant",-122.400822,37.787148
"1370",17723,79,"Sushi Suki Restaurant",-122.457584,37.738857
"1371",17736,98,"Hanuri",-122.464629,37.780923
"1372",17822,96,"Peet's Coffee & Tea",-122.420644,37.781454
"1373",17933,100,"Nile Cafe",-122.413026,37.786307
"1374",17946,96,"Pizzeria Delfina",-122.424347,37.761657
"1375",18047,92,"Las Palmeras",-122.418536,37.753463
"1376",18079,96,"Joe's coffee Shop",-122.485383,37.780408
"1377",18120,87,"Ayola",-122.400201,37.787127
"1378",18126,98,"Tacos San Buena",-122.401957,37.797327
"1379",18127,98,"NIBS",-122.49856,37.775606
"1380",18256,81,"Los Compadres Catering (Lic #6K19267)",-122.391209,37.789953
"1381",18268,94,"Que Syrah",-122.468423,37.738609
"1382",18318,88,"Anna's Teriyaki Restaurant",-122.406761,37.774722
"1383",18330,96,"Power Up Cafe",-122.407242,37.769827
"1384",18357,83,"The Board Room",-122.410704,37.799513
"1385",18403,98,"Sidewalk Juice Bar",-122.42086,37.756871
"1386",18422,96,"Pisces California Cuisine",-122.498792,37.760769
"1387",18443,96,"Rumble Fish",-122.482826,37.783833
"1388",18538,96,"Farm Fresh to You",-122.39377,37.795225
"1389",18573,96,"Cafe Le",-122.424794,37.802163
"1390",18577,96,"AMC Theatres Metreon 16 - Main Stand",-122.40419,37.784548
"1391",18580,100,"AMC Theatres Metreon 16 - Auxiliary Stand",-122.40419,37.784548
"1392",18581,98,"AMC Theatres Metreon 16 - Imax Stand",-122.40419,37.784548
"1393",18606,94,"Sheba Restaurant & Lounge",-122.432634,37.782764
"1394",18686,81,"Serve Well Market Inc",-122.415954,37.784411
"1395",18728,84,"Fat Belli Deli",-122.404201,37.728947
"1396",18767,93,"Wonderful Dessert & Cafe",-122.479654,37.763399
"1397",18800,81,"7-Mission Restaurant",-122.41013,37.778547
"1398",18805,90,"Terzo",-122.437224,37.797144
"1399",18815,92,"Lotus Garden Vietnamese Cuisine",-122.420187,37.745188
"1400",18826,87,"Fresca Restaurant",-122.433783,37.789074
"1401",18874,86,"North Beach Market and Deli",-122.406134,37.797978
"1402",18940,100,"Bruno's",-122.419036,37.758914
"1403",18952,100,"Hilton Financial District- Restaurant Seven Fifty",-122.404876,37.795057
"1404",18953,100,"Hilton Financial District- Banquet & Catering",-122.404876,37.795057
"1405",18954,100,"Hilton Financial District-Flute Coffee and Wine Bar",-122.404876,37.795057
"1406",18963,89,"The Sandwich Co",-122.401264,37.791148
"1407",18996,92,"Ritual Coffee Roasters",-122.421094,37.756427
"1408",19003,88,"Panchitas Restaurant",-122.421609,37.764903
"1409",19025,96,"Mamacita",-122.441497,37.800124
"1410",19059,100,"Moscone Convention Center - Stand #1",-122.401533,37.784128
"1411",19060,96,"Moscone Convention Center - Stand #2",-122.401533,37.784128
"1412",19061,100,"Moscone Convention Center - Stand #3",-122.401533,37.784128
"1413",19063,100,"Moscone Convention Center -  Main Kitchen",-122.401533,37.784128
"1414",19064,92,"Moscone Convention Center - Stand #4",-122.401533,37.784128
"1415",19082,100,"Moscone Ctr. Northside Cafe/Cafe D",-122.401533,37.784128
"1416",19094,90,"Rigolo",-122.451147,37.786663
"1417",19131,86,"New Casa Maria",-122.416396,37.753844
"1418",19138,81,"Pho Ha Tien",-122.462261,37.725306
"1419",19169,100,"Club Bottoms Up",-122.436245,37.72285
"1420",19170,98,"Vino Rosso",-122.415636,37.739041
"1421",19171,94,"Gestalt",-122.423309,37.764803
"1422",19172,94,"Fly Bar",-122.418197,37.787973
"1423",19344,94,"San Francisco Soup Company",-122.394501,37.789708
"1424",19380,94,"Rosamunde Sausage Grill",-122.431174,37.771965
"1425",19386,81,"Beard Papa",-122.404189,37.785638
"1426",19403,90,"Starbucks",-122.414407,37.805493
"1427",19416,98,"Starbucks",-122.407563,37.784317
"1428",19417,100,"Starbucks",-122.403349,37.787569
"1429",19418,100,"Starbucks",-122.403221,37.770517
"1430",20625,100,"Buckhorn Grill",-122.396184,37.795108
"1431",20824,96,"O Izakaya Lounge",-122.428666,37.785703
"1432",20825,94,"Hotel Kabuki - Banquet Kitchen",-122.428666,37.785703
"1433",20924,94,"JJ Ice Cream",-122.470103,37.763936
"1434",21143,98,"Pazzia Restaurant",-122.398204,37.783272
"1435",21407,92,"Subway Sandwiches #34341",-122.403337,37.787451
"1436",21429,96,"Cafe Isabella",-122.413167,37.795368
"1437",21581,96,"Los Guanacos",-122.433336,37.726582
"1438",21583,98,"Cafe Royale",-122.415243,37.787448
"1439",21807,92,"The Front Porch",-122.421988,37.743943
"1440",21909,96,"Slider Diner",-122.420192,37.787806
"1441",21921,88,"Cocobang",-122.411627,37.787657
"1442",22177,96,"Outtakes",-122.451533,37.778106
"1443",22304,100,"Julie's Kitchen",-122.397318,37.790897
"1444",22606,92,"Canyon Market",-122.433948,37.734072
"1445",22671,94,"Chiotras Grocery",-122.402104,37.758944
"1446",23068,90,"El Cafetazo",-122.421439,37.764903
"1447",23115,93,"Playground",-122.429843,37.785802
"1448",23273,98,"Mike Market",-122.398418,37.736484
"1449",23557,100,"Yield",-122.388512,37.75812
"1450",23865,96,"Bi-Rite Creamery",-122.425817,37.761504
"1451",24023,96,"Kabuki Cinema",-122.432697,37.785183
"1452",24024,94,"Kabuki Cinema Bistro Bar",-122.432697,37.785183
"1453",24025,92,"Kabuki Cinema Balcony Bar",-122.432697,37.785183
"1454",24278,100,"Cafe 747",-122.401533,37.784128
"1455",24279,80,"Park Gyros",-122.48591,37.758941
"1456",24457,84,"Tee Off Bar & Grill",-122.492939,37.781603
"1457",24752,88,"Domino's Pizza #7764",-122.417728,37.786215
"1458",24930,92,"Jake's Steaks",-122.432854,37.800564
"1459",24936,96,"San Francisco Soup Company",-122.400152,37.793199
"1460",24978,92,"The New Spot Inc.",-122.388212,37.760528
"1461",25151,100,"Westin St Francis - Caruso",-122.408345,37.7877
"1462",25153,100,"Westin St Francis - Employee's Cafeteria",-122.408345,37.7877
"1463",25160,100,"Westin St Francis - Imperial Food Kitchen",-122.408345,37.7877
"1464",25161,100,"Westin St Francis - Main Kitchen",-122.408345,37.7877
"1465",25163,100,"Westin St Francis - Pastry Shop",-122.408345,37.7877
"1466",25167,100,"Glaze Donuts",-122.433476,37.726402
"1467",25374,94,"Cafe Destiji",-122.400404,37.801285
"1468",25375,98,"Gelateria Naia",-122.409334,37.799775
"1469",25387,85,"Yum Yum Fish",-122.48113,37.763373
"1470",25404,96,"Cafe Colombini Ristorante Bistro",-122.421089,37.793061
"1471",25572,54,"Bristol Farms #2317",-122.406892,37.784848
"1472",25651,100,"Beverages & More",-122.421924,37.787794
"1473",25777,89,"Church Street Cafe",-122.428864,37.766357
"1474",26005,66,"Osaka Sushi",-122.435095,37.761557
"1475",26146,100,"Macy's Cellar",-122.407313,37.786548
"1476",26149,94,"Mrs. Fields Cookies",-122.407563,37.784317
"1477",26341,94,"Natural Market, Inc.",-122.432147,37.788113
"1478",26343,82,"Bien Hoa",-122.413776,37.784734
"1479",26348,80,"Won Mi Restaurant",-122.432874,37.783964
"1480",26379,85,"Sushi Kazu",-122.46709,37.763983
"1481",26752,100,"Cocoa Bella Chocolates",-122.406892,37.784848
"1482",26830,96,"Cicil's",-122.393992,37.792577
"1483",27053,98,"San Francisco Soup Company",-122.406892,37.784848
"1484",27055,100,"Chenery Market",-122.425623,37.73967
"1485",27056,94,"Amoura",-122.406892,37.784848
"1486",27306,98,"Guerrero Market",-122.423577,37.759824
"1487",27472,76,"SF Bay Club -  Court Commisary",-122.402841,37.8032
"1488",27525,88,"Lark Creek Steak",-122.406892,37.784848
"1489",27555,94,"Vessel",-122.406584,37.788928
"1490",27667,94,"Jamba Juice #796",-122.407563,37.784317
"1491",27737,90,"Sugarlump",-122.409582,37.752818
"1492",27790,96,"Opera Plaza Cinema",-122.420644,37.781454
"1493",27799,91,"Buckhorn Grill",-122.406892,37.784848
"1494",27821,93,"Duboce Park Cafe",-122.431407,37.769305
"1495",27851,86,"The Morning Fix",-122.413964,37.789548
"1496",27852,100,"Biondivino",-122.422397,37.797773
"1497",27874,100,"Yvonne's Southern Sweets",-122.391888,37.73185
"1498",27947,96,"Saffron Lounge",-122.402962,37.770728
"1499",27964,98,"Little Star Piza Valencia",-122.422055,37.766408
"1500",27986,96,"Beard Papa Sweets Cafe",-122.406892,37.784848
"1501",28044,96,"Century Theatres",-122.406892,37.784848
"1502",28193,92,"Subway Sandwiches #5669",-122.41542,37.778287
"1503",28209,90,"Subway Sandwiches #7307",-122.434608,37.762927
"1504",28828,98,"The Sandwich Shop",-122.389064,37.761699
"1505",28843,80,"Salt House",-122.398288,37.788727
"1506",28863,94,"Delessio Market & Bakery",-122.439147,37.773348
"1507",28976,100,"AFC Sushi @Safeway 739",-122.421638,37.742998
"1508",28978,94,"Umami",-122.433934,37.797594
"1509",29100,81,"Rosenberg Deli & Market",-122.433195,37.764628
"1510",29312,100,"Peet's Coffee & Tea",-122.439147,37.773348
"1511",29948,91,"Cafe Venue",-122.406922,37.783074
"1512",29950,92,"Mrs. Fields Cookies",-122.411234,37.802479
"1513",29956,96,"Orchard Garden Hotel",-122.405183,37.790648
"1514",30001,96,"Amici's East Coast Pizzeria",-122.437974,37.799628
"1515",30156,100,"Grace Cathedral",-122.413334,37.791538
"1516",30478,82,"Kim Huong",-122.406567,37.773043
"1517",30532,87,"Roadhouse Cafe",-122.39194,37.730959
"1518",31144,100,"Ghirardelli Chocolate Company",-122.406296,37.786267
"1519",32170,75,"La Torta Gorda",-122.408799,37.752813
"1520",32200,91,"El Gran Taco Loco",-122.421158,37.743767
"1521",32556,96,"Seal Rock Inn Restaurant",-122.509128,37.779853
"1522",32570,94,"Liang's Food",-122.408374,37.796393
"1523",32579,98,"Peet's Coffee & Tea",-122.475259,37.780443
"1524",32586,90,"Terroir",-122.408562,37.776494
"1525",32625,98,"Korean Village Restaurant",-122.4687,37.780712
"1526",32654,80,"Double Play Bar & Grill",-122.410779,37.765553
"1527",32682,100,"Market Square",-122.401533,37.784128
"1528",32683,100,"MC Coffee",-122.401533,37.784128
"1529",32684,100,"NoBe Cafe",-122.401533,37.784128
"1530",32685,100,"Savor Express",-122.401533,37.784128
"1531",32693,88,"Nickies",-122.429897,37.772249
"1532",32703,90,"Alcatraz Landing Cafe",-122.405207,37.806474
"1533",32729,92,"El Dorado Market",-122.412267,37.782488
"1534",32733,100,"Xanath Ice Cream",-122.421136,37.757693
"1535",32736,86,"Maru Sushi",-122.408724,37.789664
"1536",32738,100,"Gialina",-122.434095,37.733934
"1537",32823,98,"Peet's Coffee & Tea",-122.395322,37.789057
"1538",32845,86,"Genki Ramen",-122.461851,37.781228
"1539",32862,94,"Naked Fish Sushi & Lounge Inc",-122.43771,37.800685
"1540",32872,88,"Sugar Cafe",-122.411507,37.788823
"1541",32925,92,"Papalote",-122.420939,37.752073
"1542",32992,67,"Underdog",-122.475682,37.763658
"1543",33011,83,"Jackson Place Cafe - Commissary",-122.400821,37.797076
"1544",33014,98,"The Carlisle",-122.425764,37.786108
"1545",33054,96,"Jackson Place Cafe - Kiosk",-122.400821,37.797076
"1546",33069,91,"Rico Mex, Inc.",-122.399622,37.789737
"1547",33077,93,"Escape From New York Pizza",-122.421864,37.796254
"1548",33078,96,"Tommy's Joynt",-122.421817,37.785603
"1549",33084,94,"Miette Cakes, LLC",-122.424648,37.776257
"1550",33110,90,"Abacus",-122.450703,37.773387
"1551",33113,100,"Pho Tan Hoa, Inc",-122.412972,37.785446
"1552",33125,88,"L & L Hawaiian Barbecue",-122.404026,37.790947
"1553",33145,96,"7-Eleven, Store 2231-33006B",-122.414027,37.807888
"1554",33160,91,"Mission Bay Cafe",-122.386525,37.770518
"1555",33173,98,"Handy Delicatessen",-122.47751,37.763524
"1556",33198,94,"Subway on Jefferson",-122.417887,37.807923
"1557",33222,100,"San Francisco Soup Company",-122.396517,37.793614
"1558",33247,98,"Hole in the Wall Pizza",-122.441015,37.799664
"1559",33270,98,"Truck",-122.415485,37.766807
"1560",33272,100,"San Francisco Soup Company",-122.475639,37.728497
"1561",33315,100,"Cafe 101",-122.478029,37.720894
"1562",33375,100,"Lion Cart",-122.48629,37.721453
"1563",33378,100,"Giraffe Cart",-122.502535,37.73017
"1564",33379,100,"Carousel/Sea Lion Cart",-122.502535,37.73017
"1565",33388,100,"Sushi Kinta",-122.396457,37.794168
"1566",33413,96,"Creative Arts Charter school",-122.435468,37.780021
"1567",33446,74,"Usulutan Restaurant",-122.411722,37.752678
"1568",33448,85,"Caramba, Inc",-122.400219,37.788297
"1569",33467,90,"California Pizza Kitchen, Inc.",-122.402535,37.78678
"1570",33467,90,"California Pizza Kitchen, Inc.",-122.402535,37.78678
"1571",33516,93,"Julia Morgan Ballroom",-122.402296,37.792921
"1572",33527,86,"Popeyes Chicken & Biscuits",-122.432577,37.782817
"1573",33564,96,"Happy Shabu Shabu",-122.432592,37.78238
"1574",33591,91,"Fujiyama-Ya",-122.477102,37.754218
"1575",33619,96,"Ritual Coffee Roasters",-122.390276,37.739326
"1576",33638,96,"Pissed Off Pete's",-122.434365,37.725391
"1577",33641,82,"Roti Indian Bistro",-122.466338,37.740227
"1578",33700,90,"Casa Guadalupe #3",-122.418116,37.749194
"1579",33710,96,"Phil'z Coffee",-122.414116,37.752455
"1580",33728,96,"Split Pea Seduction",-122.406761,37.774722
"1581",33802,92,"New United Supermarket, Inc",-122.408314,37.796113
"1582",33831,90,"BLUSH",-122.4351,37.761209
"1583",33837,88,"Lotta's Bakery",-122.421019,37.792593
"1584",33851,94,"Thee Parkside",-122.399872,37.764987
"1585",33865,77,"Nabe",-122.48591,37.758941
"1586",33884,94,"Dos Amigos",-122.404528,37.772054
"1587",33891,85,"Harlot",-122.398009,37.788656
"1588",33914,94,"Subway 30303",-122.46779,37.711185
"1589",33935,96,"Avedano's",-122.41895,37.739466
"1590",33940,94,"The Good Life Grocery",-122.396813,37.760018
"1591",33945,85,"Chipotle Mexican Grill #0839",-122.399563,37.790697
"1592",33980,94,"Panera Bread",-122.394423,37.775777
"1593",33981,100,"Jackson Market",-122.415076,37.794943
"1594",33999,100,"DUK HING CHINESE DELI & MEAT INC.",-122.408394,37.796484
"1595",34005,94,"Frjtz Valencia",-122.421795,37.763467
"1596",34033,96,"Cafe Meuse",-122.418474,37.795468
"1597",34046,100,"Oceanview Market and Deli",-122.4999,37.779373
"1598",34057,98,"La Boulange de Fillmore",-122.433774,37.788503
"1599",34102,96,"The Broken Record",-122.436835,37.71444
"1600",34126,82,"Nob Hill Grille",-122.417214,37.789914
"1601",34143,90,"Cello",-122.397318,37.790897
"1602",34161,90,"Buca di Beppo",-122.403932,37.782257
"1603",34179,96,"Gitane Restaurant and Bar",-122.403973,37.790353
"1604",34184,83,"Win's Restaurant",-122.499002,37.742048
"1605",34186,94,"Angel Cafe and Deli",-122.415064,37.786528
"1606",34201,100,"Trouble Coffee Company",-122.505349,37.760469
"1607",34220,94,"Aunt Fannys Cart 3",-122.410189,37.80824
"1608",34244,98,"Vital Tea Leaf Inc",-122.406514,37.795303
"1609",34331,100,"Stanley's Steamers",-122.405035,37.787954
"1610",34332,100,"California Spirit",-122.393914,37.757923
"1611",34352,100,"The Olympic Club Cafe",-122.410904,37.787978
"1612",34353,100,"The Olympic Club Bar/Grill",-122.410904,37.787978
"1613",34354,100,"The Olympic Club Restaurant",-122.410904,37.787978
"1614",34387,98,"Lombard Union 76",-122.442374,37.799078
"1615",34411,100,"Gabby Cafe & Deli",-122.390703,37.787808
"1616",34418,98,"SPQR",-122.433535,37.787295
"1617",34423,93,"Red Sea Market",-122.440138,37.72886
"1618",34425,100,"Amel's Market",-122.441244,37.723338
"1619",34434,90,"Fang's",-122.399729,37.785654
"1620",34451,100,"Theo's Cheese Steak Shop",-122.393172,37.791864
"1621",34458,96,"Ayola",-122.404144,37.791185
"1622",34505,91,"Whole Foods Market",-122.402545,37.764139
"1623",34585,70,"Hing Wang Bakery",-122.465809,37.762174
"1624",34591,92,"La Laguna",-122.388402,37.741752
"1625",34611,74,"Napoleon Super Bakery Corp",-122.408204,37.795594
"1626",34635,90,"S B House  Inc.",-122.474922,37.780933
"1627",34647,100,"1300 on Fillmore",-122.432317,37.781548
"1628",34649,96,"May's Coffee Shop",-122.430317,37.785457
"1629",34661,96,"Philz Coffee",-122.433299,37.760953
"1630",34663,90,"Paladar Cafe Cubano",-122.404144,37.791174
"1631",34708,90,"Piqueos LLC",-122.414078,37.738893
"1632",34710,96,"Dolce Gelato",-122.415474,37.788367
"1633",34726,92,"Spruce",-122.452723,37.787478
"1634",34728,92,"Pete's Tavern",-122.390519,37.779343
"1635",34743,74,"Rotee Express",-122.393159,37.790863
"1636",34749,94,"Chatz Coffee",-122.397827,37.786529
"1637",34769,92,"HFF Coffee Series 1 (Union Square Macys)",-122.406407,37.786907
"1638",34787,100,"Hollywood Food Center",-122.485532,37.780148
"1639",34865,96,"Regent Thai Restaurant",-122.426685,37.743567
"1640",34869,90,"Cumaica Coffee - Clement",-122.461381,37.783108
"1641",34910,98,"Piccolo Italia Pizza",-122.417854,37.785121
"1642",34936,100,"Wetzel's Pretzels Stonestown",-122.475639,37.728497
"1643",34969,90,"La Boulange",-122.424864,37.776668
"1644",34989,100,"Cafe Muse",-122.46597,37.773689
"1645",34995,100,"Taqueria Reina's",-122.44282,37.714492
"1646",35070,92,"The Nature Stop",-122.407277,37.799348
"1647",35106,90,"New York Tobacco",-122.415607,37.778743
"1648",35199,94,"Pho #1",-122.40426,37.729254
"1649",35220,100,"Jasmin's Cafe",-122.410594,37.789886
"1650",35221,88,"Golden Flower Vietnamese Restaurant",-122.406202,37.796026
"1651",35240,92,"New San Wang Restaurant",-122.429476,37.785676
"1652",35340,98,"Cornerstone Academy",-122.41765,37.724683
"1653",35359,90,"Pagoda",-122.429854,37.785625
"1654",35415,94,"Alcatraz Landing Cafe",-122.404248,37.805934
"1655",35425,85,"LOCAL KITCHEN & WINE MERCHANT",-122.481424,37.681741
"1656",35464,94,"Bernie's",-122.431118,37.751533
"1657",35469,86,"Subway #36339",-122.410903,37.779466
"1658",35503,94,"Left Coast Catering and Cafe",-122.388877,37.762368
"1659",35565,88,"Daldas Market",-122.411224,37.784148
"1660",35591,100,"The Monk's Kettle",-122.422979,37.764814
"1661",35592,78,"Little Saigon Deli",-122.392653,37.792864
"1662",35671,94,"Chaat Cafe Express",-122.402861,37.789064
"1663",35690,85,"Green Valley Market",-122.414156,37.784683
"1664",35702,84,"MENKEE WONTON",-122.481866,37.753954
"1665",35771,98,"Starbucks Coffee",-122.408507,37.788918
"1666",35786,96,"Subway #33355",-122.483612,37.723054
"1667",35790,100,"Starbucks",-122.393977,37.767692
"1668",35805,98,"Hard Knox Cafe",-122.485732,37.782008
"1669",35812,98,"Umi",-122.395859,37.762679
"1670",35852,92,"Beach Street Grill",-122.415294,37.807358
"1671",35855,86,"Lava Restaurant & Lounge",-122.396522,37.780728
"1672",35862,90,"Toast Eatery",-122.431618,37.751423
"1673",35882,100,"Peet's Coffee and Tea",-122.406761,37.774722
"1674",35975,94,"Catch Isle",-122.406738,37.785092
"1675",35989,92,"S & E Supermarket",-122.490939,37.753547
"1676",36001,92,"Subway Sandwiches",-122.414099,37.808407
"1677",36014,90,"CATCH",-122.43446,37.763263
"1678",36022,83,"Wok In Chinese American Food",-122.383536,37.743419
"1679",36023,91,"Blue Barn Gourmet",-122.43797,37.800536
"1680",36024,92,"R. Image Market",-122.414014,37.750967
"1681",36160,94,"Zabb",-122.433485,37.726489
"1682",36177,98,"Subway Sandwiches",-122.404543,37.790639
"1683",36178,94,"Subway Sandwiches",-122.402706,37.793117
"1684",36201,88,"Pacific Catch",-122.48591,37.758941
"1685",36208,92,"Silver Cafe",-122.431482,37.728582
"1686",36213,100,"Sens Restaurant",-122.396184,37.795108
"1687",36214,98,"Red and White Fleet - Harbor Queen",-122.415069,37.808931
"1688",36215,94,"Red and White Fleet - Harbor Princess",-122.415069,37.808931
"1689",36216,92,"Red and White Fleet - Royal Prince",-122.415069,37.808931
"1690",36274,96,"Rubio's Fresh Mexican Grill",-122.396184,37.795108
"1691",36277,96,"L'Ardoise",-122.433258,37.766653
"1692",36319,100,"Wine Jar",-122.433327,37.786769
"1693",36348,96,"El Tepa",-122.415035,37.762217
"1694",36387,82,"Hahn's Hibachi",-122.434006,37.751004
"1695",36396,100,"Western Sunset Market",-122.505905,37.760371
"1696",36412,96,"Tataki Suski & Sake Bar",-122.440756,37.788014
"1697",36451,100,"Cavalli Caffe",-122.408934,37.799163
"1698",36452,90,"Panini",-122.446337,37.770053
"1699",36473,92,"Maggie Cafe",-122.406356,37.794898
"1700",36474,92,"The Sentinel",-122.401444,37.788327
"1701",36523,94,"Marina Theatre",-122.438567,37.800483
"1702",36534,87,"Jewish Community Center of San Francisco",-122.447403,37.787218
"1703",36570,98,"7-Eleven, Store 2366-21389F",-122.402934,37.712166
"1704",36571,96,"Pagan Restaurant",-122.493393,37.781558
"1705",36578,88,"Holy Grill",-122.402962,37.770728
"1706",36602,96,"Cafe Insalata",-122.399936,37.796854
"1707",36614,92,"Poesia",-122.434302,37.760959
"1708",36618,92,"Chug Pub",-122.478129,37.765384
"1709",36685,92,"Muddy Waters Coffee House, Inc.",-122.420665,37.751868
"1710",36687,98,"Jay's Cheesesteak",-122.420849,37.756893
"1711",36728,96,"La Boulange",-122.409517,37.799837
"1712",36730,96,"Clementine",-122.460661,37.783148
